t_s,t_utc,x_eci_m,y_eci_m,z_eci_m,vx_eci_mps,vy_eci_mps,vz_eci_mps,r_norm_m,v_norm_mps,x_ecef_m,y_ecef_m,z_ecef_m,lat_deg,lon_deg,alt_m,lat_rad,lon_rad,alt_km,B_N_nT,B_E_nT,B_D_nT,Bx_ecef_T,By_ecef_T,Bz_ecef_T,Bx_eci_T,By_eci_T,Bz_eci_T,B_norm_T,B_norm_nT,q_eci_from_body_w,q_eci_from_body_x,q_eci_from_body_y,q_eci_from_body_z,q_eci_from_body_norm,omega_body_x_radps,omega_body_y_radps,omega_body_z_radps,yaw_eci_from_body_rad,pitch_eci_from_body_rad,roll_eci_from_body_rad,yaw_eci_from_body_deg,pitch_eci_from_body_deg,roll_eci_from_body_deg,Bx_body_T,By_body_T,Bz_body_T,B_body_norm_T,Bx_magnetometer_T,By_magnetometer_T,Bz_magnetometer_T,B_magnetometer_norm_T,det_R_eci_from_body,RT_R_minus_I_fro,RT_R_minus_I_11,RT_R_minus_I_12,RT_R_minus_I_13,RT_R_minus_I_21,RT_R_minus_I_22,RT_R_minus_I_23,RT_R_minus_I_31,RT_R_minus_I_32,RT_R_minus_I_33
0.0,2026-01-01T12:00:00.000,6871258.863000001,0.0,0.0,0.0,-928.6717675671225,7563.424592946154,6871258.863000001,7620.22459151034,1289995.3972881432,6749059.63627887,17443.144292173998,0.14635873764793528,79.17916738986841,493122.00143892725,0.002554441861019052,1.3819371699409284,493.12200143892727,30634.18600224899,-1746.6629626655863,-9018.109827932165,3.39395503859114e-06,8.452952847750712e-06,3.065712226781743e-05,9.017623566979954e-06,-1.745671225798282e-06,3.063438567312637e-05,3.198172116059707e-05,31981.72116059707,1.0,0.0,0.0,0.0,1.0,0.0017453292519943296,-0.003490658503988659,0.0,0.0,-0.0,0.0,0.0,-0.0,0.0,9.017623566979954e-06,-1.745671225798282e-06,3.063438567312637e-05,3.198172116059707e-05,9.622340646734386e-06,-2.9856553320387774e-06,3.148483686893283e-05,3.305750338345048e-05,1.0,0.0,0.0,0.0,0.0,0.0,0.0,0.0,0.0,0.0,0.0
10.0,2026-01-01T12:00:10.000,6870836.748083066,-9286.52750779967,75632.69713643612,-84.42211640495762,-928.614717441409,7562.9599569585835,6871259.285114918,7620.224123852661,1303923.348950884,6745763.504049047,93074.22188026518,0.7809725351976198,79.05992368228284,493126.22666547814,0.013630542106845769,1.3798559746312749,493.12622666547816,30765.341494447923,-1690.4647881242915,-8191.48938944212,3.134615039694547e-06,7.309337262681587e-06,3.087413455014611e-05,7.847451545108141e-06,-1.699971146278057e-06,3.08543677497406e-05,3.188203893867566e-05,31882.038938675658,0.9998096201095343,0.008726282803971867,-0.017452087788888678,-1.2516501676358458e-05,1.0,0.0017453997669152168,-0.003490622070088297,-5.007459654980973e-06,-0.0003298128385889419,-0.034904399085431984,0.01746120217655694,-0.018896883680375825,-1.9998747540355433,1.0004531899413596,8.919966092938426e-06,-1.1635072051212673e-06,3.058667786425473e-05,3.188203893867566e-05,1.0160530809329641e-05,-3.314542393775104e-06,2.9384498357392417e-05,3.126773610805661e-05,1.0,1.5332934166833742e-19,0.0,1.0842021724855044e-19,0.0,1.0842021724855044e-19,0.0,0.0,0.0,0.0,0.0
20.0,2026-01-01T12:00:20.000,6869570.455350527,-18571.91403666011,151256.10174512412,-168.83382926581297,-928.4435741367497,7561.56610659661,6871260.55140765,7620.222720937426,1317686.3653497016,6741621.955298073,168693.8639827627,1.415582363414504,78.9406568867156,493136.49950183457,0.024706573074746014,1.3777743763603236,493.1364995018346,30886.039190907366,-1634.7053645589158,-7360.497960091714,2.8694833454048668e-06,6.159182687058013e-06,3.105844720377352e-05,6.669618731352211e-06,-1.6515303525722963e-06,3.1041669449703026e-05,3.1793027675131825e-05,31793.027675131823,0.9992385523977009,0.017450384857119486,-0.034896947807938186,-5.004174014240669e-05,1.0,0.0017456113114871913,-0.0034905127573717984,-1.0015219381194476e-05,-0.0013211546471949736,-0.06979565841496309,0.034969939165560994,-0.07569658536836726,-3.998996655514134,2.003629924015885,8.820365961461632e-06,-5.753189926299506e-07,3.053959333577162e-05,3.1793027675131825e-05,9.248206364628917e-06,-1.0915615849735327e-06,3.062279217826733e-05,3.200744020458218e-05,0.9999999999999999,1.127503537277148e-16,0.0,8.673617379884035e-19,0.0,8.673617379884035e-19,0.0,1.3877787807814457e-17,0.0,1.3877787807814457e-17,-1.1102230246251565e-16
30.0,2026-01-01T12:00:30.000,6867460.140850647,-27855.018749088675,226860.9224503059,-253.22473634349979,-928.1583588696806,7559.243214655052,6871262.661722146,7620.220382938038,1331281.530486017,6736635.739800384,244292.77968827548,2.0501849675118815,78.82134822345073,493152.81529333675,0.03578247795797531,1.3756920473601983,493.15281529333674,30996.177635929602,-1579.367206524099,-6525.597187611366,2.5987247757931807e-06,5.003656958029265e-06,3.12097884333129e-05,5.485294458415775e-06,-1.6003054298142702e-06,3.1196016006886006e-05,3.171499404802258e-05,31714.99404802258,0.9982870127188347,0.026170125334572733,-0.05232735536951591,-0.00011250293469290218,1.0,0.0017459638851339122,-0.003490330532791814,-1.502357916648047e-05,-0.002979756692955869,-0.10466051764510641,0.05257413123022884,-0.17072748248223082,-5.9966059427190785,3.012275831059047,8.719031356860665e-06,1.8473088025040317e-08,3.0492933581556353e-05,3.171499404802258e-05,8.165987429287086e-06,6.978710628878688e-07,3.13707255169853e-05,3.2423645602827015e-05,1.0,1.5701403733719375e-16,-1.1102230246251565e-16,8.673617379884035e-19,0.0,8.673617379884035e-19,0.0,0.0,0.0,0.0,-1.1102230246251565e-16
40.0,2026-01-01T12:00:40.000,6864506.064642123,-37134.70109046778,302437.8701800558,-337.58443800884845,-927.7591069980688,7555.991569100626,6871265.615798345,7620.217110143473,1344705.9501287253,6730805.715201613,319861.6806532738,2.6847770925431846,78.70197887250983,493175.16668414825,0.04685819994699907,1.373608659160311,493.1751666841482,31095.669736626176,-1524.433035143631,-5687.2515447138085,2.322514291912865e-06,3.8439359527367464e-06,3.1327934600543556e-05,4.295657854695071e-06,-1.546257960920217e-06,3.131718078778011e-05,3.1648213260479906e-05,31648.213260479904,0.9969553607489794,0.034883323263750654,-0.06973609194929907,-0.00019977884741981784,1.0,0.0017464574868805368,-0.0034900753412657067,-2.0032838831829647e-05,-0.005315242671211403,-0.13948547318499094,0.07032247461792585,-0.30454097214825526,-7.991928916885198,4.029181000523007,8.61615626252593e-06,6.174320281753726e-07,3.044651099109937e-05,3.1648213260479906e-05,8.982186960087146e-06,1.5446732351434054e-06,3.1014020333351415e-05,3.232545676748997e-05,0.9999999999999999,1.5700924586837752e-16,0.0,0.0,0.0,0.0,-1.1102230246251565e-16,0.0,0.0,0.0,-1.1102230246251565e-16
50.0,2026-01-01T12:00:50.000,6860708.590761453,-46409.82093044698,377977.65931782674,-421.90253854709624,-927.2458680165734,7551.811573034988,6871269.413272207,7620.212902958255,1357956.7523281996,6724132.84688028,395391.2822535442,3.3193554833244803,78.58252995548807,493203.54362099076,0.05793368222813992,1.37152388227034,493.2035436209908,31184.442671850902,-1469.885801949083,-4845.9274232880425,2.0410366026036952e-06,2.6812010744503324e-06,3.1412710357460405e-05,3.101895326420378e-06,-1.4893545860579943e-06,3.14049854309379e-05,3.159292708212556e-05,31592.927082125556,0.995244099864137,0.0435877974514625,-0.08711594826517323,-0.00031169987809390393,1.0,0.0017470921153323012,-0.0034897471056699785,-2.5043297947790016e-05,-0.008341237086116655,-0.17425665134308502,0.08826484230362418,-0.47791768095248516,-9.98417067404146,5.057202943385432,8.511921485468002e-06,1.2211058535716899e-06,3.0400150241998862e-05,3.159292708212556e-05,7.952629022584765e-06,1.3898566376541887e-06,2.954126764116986e-05,3.0624540873151365e-05,1.0,2.4532694666933987e-18,0.0,1.734723475976807e-18,0.0,1.734723475976807e-18,0.0,0.0,0.0,0.0,0.0
60.0,2026-01-01T12:01:00.000,6856068.187177278,-55679.23870428066,453471.0088535534,-506.16864746187406,-926.618705550293,7546.703744642979,6871274.053675757,7620.20776190239,1371031.0879253908,6716618.2077957345,470872.304735168,3.9539168843476182,78.46298251728768,493237.9333582746,0.06900886798206178,1.3694373858614186,493.2379333582746,31262.43776973862,-1415.7087094105782,-4002.092252787017,1.7544857484211654e-06,1.5166367727151702e-06,3.146398864598597e-05,1.9051980687849719e-06,-1.4295670442080488e-06,3.145929985300549e-05,3.154934213032815e-05,31549.34213032815,0.9931538769698627,0.05228136641214093,-0.10445972735281078,-0.00044804819697375273,1.0,0.0017478677686445332,-0.0034893457268324857,-3.005525575068234e-05,-0.012075518983464355,-0.20895967506001498,0.10645270015557239,-0.6918762731826137,-11.972507469363945,6.09929043668594,8.406495793549598e-06,1.8290293913306797e-06,3.0353689542050404e-05,3.154934213032814e-05,9.584946094856871e-06,1.5791034803444269e-06,3.026882717850514e-05,3.178941110189302e-05,0.9999999999999999,1.1285039546789633e-16,0.0,3.469446951953614e-18,0.0,3.469446951953614e-18,-1.1102230246251565e-16,1.3877787807814457e-17,0.0,1.3877787807814457e-17,0.0
70.0,2026-01-01T12:01:10.000,6850585.425731677,-64941.81555409311,528908.6435341636,-590.3723807784903,-925.8776973465974,7540.66871712611,6871279.536437145,7620.201687611308,1383926.1310588024,6708262.978321657,546295.4743648755,4.588458039681121,78.34331750768729,493278.3204645493,0.08008370038204018,1.3673488374444611,493.27832046454927,31329.610356148005,-1361.8852281287002,-3156.2136441192556,1.4630646644982277e-06,3.514281042859325e-07,3.1481690569043313e-05,7.067596129526794e-07,-1.3668721971320036e-06,3.1480042126023004e-05,3.1517628416649253e-05,31517.628416649255,0.9906854822822474,0.06096184829760331,-0.12176024763688056,-0.0006085579152588805,0.9999999999999999,0.0017487844444840518,-0.003488871083522472,-3.5069011058550254e-05,-0.016540223005571904,-0.24357952185603735,0.12493954384903985,-0.9476849704244596,-13.956078578165533,7.158508556839668,8.300037152141154e-06,2.4407260758947506e-06,3.0306981712230934e-05,3.1517628416649253e-05,7.919107607737213e-06,3.463267414568781e-06,3.0252452230162132e-05,3.146295206152749e-05,1.0,1.6302709355362946e-16,0.0,0.0,-2.7755575615628914e-17,0.0,-1.1102230246251565e-16,1.3877787807814457e-17,-2.7755575615628914e-17,1.3877787807814457e-17,-1.1102230246251565e-16
80.0,2026-01-01T12:01:20.000,6844260.982068442,-74196.41347005284,604281.2950133514,-674.5033623463439,-925.0229352651489,7533.707238621297,6871285.86088072,7620.194680835785,1396639.0796692611,6699068.446065297,621651.5245796276,5.222975692855834,78.22351576270928,493324.68683036487,0.09115812259196637,1.3652579025449605,493.32468683036484,31385.92957616553,-1308.3991106834483,-2308.758560123918,1.166984724144241e-06,-8.132416589189903e-07,3.14657851378226e-05,-4.922265846975501e-07,-1.3012520361307404e-06,3.1467178230810395e-05,3.1497918180124305e-05,31497.918180124307,0.9878398490603462,0.06962706082874479,-0.1390103459966907,-0.0007929152936821285,0.9999999999999999,0.0017498421399819773,-0.0034883230324384293,-4.008486218678095e-05,-0.021762090249482266,-0.2781003704152765,0.14378136197862249,-1.2468759246781347,-15.933977505820206,8.238065214017832,8.1926940462092e-06,3.055709785481486e-06,3.0259895103154706e-05,3.1497918180124305e-05,8.064366224046094e-06,2.5035762349932567e-06,3.0892204288708056e-05,3.202546147013702e-05,1.0,4.046035655711836e-17,0.0,6.938893903907228e-18,0.0,6.938893903907228e-18,0.0,2.7755575615628914e-17,0.0,2.7755575615628914e-17,0.0
90.0,2026-01-01T12:01:30.000,6837095.635548328,-83441.89543143801,679579.7030004624,-758.5512251402837,-924.054525266111,7525.820172104817,6871293.026227115,7620.18674244184,1409167.1559997178,6689036.005672914,696931.1971352784,5.857466586732327,78.10355798576926,493377.0116774599,0.10223207776403312,1.363164244373984,493.37701167745985,31431.378190681196,-1255.234402169605,-1460.1925135123715,8.664652649936155e-07,-1.9761933691178682e-06,3.14162889001701e-05,-1.6905695052251255e-06,-1.232693672041622e-06,3.14207216913528e-05,3.149030502466651e-05,31490.305024666508,0.9846180532901286,0.07827482122948415,-0.15620288082521497,-0.0010007589887983843,1.0,0.001751040851677949,-0.0034877014081938144,-4.510310686333416e-05,-0.02777277185724503,-0.3125054329647708,0.16303713092588076,-1.591262612799849,-17.905242383789837,9.3413395059748,8.084606873275626e-06,3.673486700466648e-06,3.0212314338901877e-05,3.149030502466651e-05,8.750050937639705e-06,3.886219312062636e-06,3.074313534190976e-05,3.219947922876578e-05,0.9999999999999999,2.0862889719104477e-16,-1.1102230246251565e-16,1.3877787807814457e-17,-5.551115123125783e-17,1.3877787807814457e-17,-1.1102230246251565e-16,0.0,-5.551115123125783e-17,0.0,-1.1102230246251565e-16
100.0,2026-01-01T12:01:40.000,6829090.26915129,-92677.12554757505,754794.6164083466,-842.5056125607477,-922.9725873965489,7517.008495281559,6871301.031593334,7620.177873410631,1421507.6070926748,6678167.158620916,772125.2432541704,6.491927463347076,77.98342472854519,493435.2715692934,0.11330550903604997,1.3610675234942788,493.4352715692934,31465.9523498825,-1202.375447488309,-610.978792988935,5.617330995310261e-07,-3.1362542839703654e-06,3.133326545507904e-05,-2.887082876273197e-06,-1.161189308995466e-06,3.1340733095150884e-05,3.149484337295998e-05,31494.84337295998,0.9810213133200169,0.08690294616339418,-0.17333073508048139,-0.0012316803366033584,1.0,0.0017523805754556564,-0.0034870060233006804,-5.0124042143509165e-05,-0.03460918861679058,-0.34677677027986864,0.1827693470849192,-1.9829604401143117,-19.868845370214153,10.471912212327547,7.975909392236854e-06,4.29355717515242e-06,3.016414088346967e-05,3.1494843372959984e-05,1.0417556993107316e-05,3.687142158767805e-06,2.975189815439813e-05,3.173792612621816e-05,1.0,9.813077866773595e-18,0.0,6.938893903907228e-18,0.0,6.938893903907228e-18,0.0,0.0,0.0,0.0,0.0
110.0,2026-01-01T12:01:50.000,6820245.869365744,-101900.96919863202,829916.7945000287,-926.3561797325009,-921.777255775022,7507.273300459531,6871309.875992882,7620.168074838327,1433657.7052842015,6666463.5129930135,847224.4247715162,7.1263550637341675,77.8630963715347,493499.4404229652,0.12437835952833157,1.3589673974809304,493.4994404229652,31489.66134535725,-1149.8068955073954,238.4222818731491,2.530220118358047e-07,-4.292260285067501e-06,3.12168248582955e-05,-4.0805874227164745e-06,-1.0867362025233225e-06,3.122731950453689e-05,3.151154824388572e-05,31511.548243885718,0.9770509894481124,0.09550925167338035,-0.19038681932816426,-0.0014852236735436064,1.0,0.0017538613064696825,-0.0034862366681512606,-5.514796432418584e-05,-0.04231395004264948,-0.3808950857549437,0.20304460196968405,-2.424410751971225,-21.82368085103184,11.633598745776577,7.866730212710374e-06,4.915417614389948e-06,3.0115293426485355e-05,3.151154824388572e-05,7.352957484462497e-06,5.331397036965444e-06,3.1344265719206245e-05,3.2633614136504784e-05,1.0,3.1707024946691817e-16,-2.220446049250313e-16,-1.3877787807814457e-17,0.0,-1.3877787807814457e-17,0.0,-2.7755575615628914e-17,0.0,-2.7755575615628914e-17,2.220446049250313e-16
120.0,2026-01-01T12:02:00.000,6810563.526064829,-111112.29317624916,904937.0080340516,-1010.0925948018049,-920.4686785743716,7496.615794409684,6871319.558335873,7620.157347935975,1445614.7486935032,6653926.783243476,922219.5152804181,7.760746127719527,77.74255310426622,493569.4895224179,0.1354505723401061,1.356863520575984,493.5694895224179,31502.527342342346,-1097.513700251001,1087.5540765327953,-5.942775758679588e-08,-5.443058029184285e-06,3.106712292406894e-05,-5.269913054201562e-06,-1.0093366026749112e-06,3.108063376397441e-05,3.1540395354951555e-05,31540.395354951557,0.9727085834612246,0.10409155312477987,-0.20736407477423982,-0.001760886694989594,1.0,0.0017554830390636574,-0.0034853931109975478,-6.017516885747513e-05,-0.05093583634704843,-0.41483949451824187,0.2239342054309759,-2.9184084486549313,-23.768552211235708,12.830484859810477,7.757194309399051e-06,5.538562346557491e-06,3.0065708086226278e-05,3.1540395354951555e-05,7.943246851744176e-06,4.4984058695949636e-06,2.9341226870535036e-05,3.0728462704527824e-05,0.9999999999999999,8.777083671441753e-17,0.0,2.7755575615628914e-17,5.551115123125783e-17,2.7755575615628914e-17,0.0,0.0,5.551115123125783e-17,0.0,0.0
130.0,2026-01-01T12:02:10.000,6800044.432369709,-120309.96582398788,979846.040408342,-1093.7045402318372,-919.047018002705,7485.03729821104,6871330.07742917,7620.145694029336,1457376.061710623,6640558.78994611,997101.3012753789,8.395097393684326,77.62177490509946,493645.38753301423,0.1465220905453861,1.3547555433358947,493.64538753301423,31504.58509350293,-1045.481119329976,1935.9643277771675,-3.753700369938361e-07,-6.587507028237027e-06,3.0884360428076265e-05,-6.453900985316877e-06,-9.289976828830172e-07,3.090087370835965e-05,3.158132154554443e-05,31581.32154554443,0.9679957381258325,0.11264766515226989,-0.22425547628659698,-0.0020581208512440306,0.9999999999999999,0.0017572457666797194,-0.0034844750979289023,-6.520595026371506e-05,-0.060530346274415586,-0.44858726304209845,0.2455148615648027,-3.4681333739894393,-25.702156915637136,14.066965375401866,7.647424545917696e-06,6.162485484446209e-06,3.0015338429402293e-05,3.158132154554443e-05,8.598017333742397e-06,6.705739655649651e-06,3.0658492697707486e-05,3.25397606152238e-05,1.0,1.415262216750919e-16,-1.1102230246251565e-16,2.7755575615628914e-17,5.551115123125783e-17,2.7755575615628914e-17,0.0,0.0,5.551115123125783e-17,0.0,0.0
140.0,2026-01-01T12:02:20.000,6788689.8844999485,-129492.8571775811,1054634.6888024579,-1177.1817140961957,-917.5124502825823,7472.539247081174,6871341.431976539,7620.133114558726,1468938.9954795346,6626361.45952945,1071860.5832941611,9.029405598294264,77.50074152059304,493727.1005174116,0.1575928571882434,1.3526431122714253,493.7271005174116,31495.881635496768,-993.6947098765027,2783.2058000874154,-6.945532566846214e-07,-7.724481654216553e-06,3.0668782216556954e-05,-7.63140578444092e-06,-8.457314553791146e-07,3.068828127735216e-05,3.163422551129234e-05,31634.22551129234,0.9629142366311112,0.121175401610987,-0.2410540354045255,-0.002376331781158279,1.0,0.0017591494817592833,-0.0034834823528477293,-7.024060204374776e-05,-0.07116031276841463,-0.4821135141103392,0.26786940070589005,-4.077185590461061,-27.6230696047433,15.347786121146175,7.5375431926239925e-06,6.786682765681585e-06,2.9964155308578738e-05,3.163422551129234e-05,7.172033485335298e-06,6.818844088748305e-06,3.0180841117719466e-05,3.176189335657518e-05,1.0,4.3885418357208765e-17,0.0,-1.3877787807814457e-17,0.0,-1.3877787807814457e-17,0.0,2.7755575615628914e-17,0.0,2.7755575615628914e-17,0.0
150.0,2026-01-01T12:02:30.000,6776501.281610938,-138659.8391049661,1129293.7653180636,-1260.5138313703058,-915.8651656284028,7459.123190192049,6871353.6205788115,7620.119611078831,1480300.9283765517,6611336.823998278,1146488.1770578404,9.663667476191314,77.37943244439433,493814.59195276076,0.16866281527742916,1.350525869479205,493.81459195276074,31476.47596945376,-942.1403223002858,3628.8369117904404,-1.0167209884098903e-06,-8.852873065676875e-06,3.042067622669846e-05,-8.801297347606633e-06,-7.595546740373032e-07,3.0443141540764775e-05,3.1698968834567436e-05,31698.968834567437,0.9574660019841221,0.12967257553225833,-0.2577528033351711,-0.0027148797823644197,1.0,0.001761194175634973,-0.0034824145774433346,-7.527941659040702e-05,-0.0828965866007417,-0.5153908913682756,0.29108756890016996,-4.749624548263231,-29.529722874887685,16.678089166703298,7.4276734232353505e-06,7.410653364406862e-06,2.991214651952023e-05,3.1698968834567436e-05,7.946362019964363e-06,8.082082142355052e-06,3.023574206829491e-05,3.229032083347214e-05,1.0,1.5700924586837752e-16,0.0,5.551115123125783e-17,5.551115123125783e-17,5.551115123125783e-17,-1.1102230246251565e-16,0.0,5.551115123125783e-17,0.0,0.0
160.0,2026-01-01T12:02:40.000,6763480.125618428,-147809.78544608224,1203814.0981174922,-1343.690625220567,-914.1053682220004,7444.7907904712565,6871366.641734052,7620.105185258505,1491459.2664868091,6595487.020640849,1220974.9146089144,10.297879759644424,77.25782689557894,493907.8227491918,0.17973190778027748,1.3484034522636819,493.9078227491918,31446.43872639493,-890.8040922366615,4472.422330736156,-1.3416124889174233e-06,-9.971591052643074e-06,3.0140372423322063e-05,-9.962462793985582e-06,-6.704887255927982e-07,3.0165781640054182e-05,3.177537729135759e-05,31775.377291357592,0.951653096357307,0.13813699908418087,-0.2743448739359612,-0.003073080316000719,0.9999999999999999,0.0017633798384134355,-0.003481271451164169,-8.032268509914344e-05,-0.0958187850406488,-0.5483891770249351,0.31526687305889145,-5.490011980900444,-31.42038537418135,18.063461246561157,7.3179407753767425e-06,8.033901666085126e-06,2.985931628212336e-05,3.17753772913576e-05,8.296854338448637e-06,7.901480735574017e-06,3.0248435680813342e-05,3.234561872749357e-05,1.0000000000000002,1.798766884999431e-16,0.0,2.7755575615628914e-17,1.1102230246251565e-16,2.7755575615628914e-17,0.0,5.551115123125783e-17,1.1102230246251565e-16,5.551115123125783e-17,0.0
170.0,2026-01-01T12:02:50.000,6749628.021010194,-156941.57215241616,1278186.5325602489,-1426.7018482910576,-912.2332761864486,7429.543824388671,6871380.493837759,7620.0898388805645,1502411.4440749607,6578814.291722727,1295311.6454473194,10.932039178155547,77.13590379642359,494006.751269602,0.19080007761582926,1.3462754927491856,494.006751269602,31405.85181853417,-839.672431107817,5313.533539248444,-1.6689632456009144e-06,-1.1079565797071047e-05,2.9828241656946752e-05,-1.1113808279845317e-05,-5.785595102472225e-07,2.9856569650982194e-05,3.1863242410527005e-05,31863.242410527004,0.9454777203886031,0.1465664835375856,-0.29082338668124924,-0.00345020455128828,1.0,0.001765706458849676,-0.003480052631188195,-8.537069747774784e-05,-0.1100160978802176,-0.5810748556488188,0.34051347509630486,-6.303458087034631,-33.29313680985086,19.50998499035133,7.208474560596155e-06,8.655938997450447e-06,2.98056845499925e-05,3.186324241052701e-05,8.139762786434695e-06,6.998783177594781e-06,2.95860133336352e-05,3.14733361619713e-05,1.0,2.5133742693021536e-16,0.0,-2.7755575615628914e-17,5.551115123125783e-17,-2.7755575615628914e-17,2.220446049250313e-16,-5.551115123125783e-17,5.551115123125783e-17,-5.551115123125783e-17,0.0
180.0,2026-01-01T12:03:00.000,6734946.674644824,-166054.0774262754,1352401.932337304,-1509.537273987634,-910.249121558079,7413.384181728559,6871395.175183053,7620.073573841561,1513154.9240537789,6561320.984166426,1369489.2376642036,11.566142458017149,77.01364174952805,494111.33335072256,0.20186726764710927,1.3441416174806307,494.1113333507226,31354.808077336213,-788.7320157669686,6151.749368100667,-1.9985055221981163e-06,-1.2175749546251151e-05,2.9484694448339122e-05,-1.2254260728075006e-05,-4.83797312735801e-07,2.9515913372548033e-05,3.196232325797378e-05,31962.323257973778,0.9389422124342063,0.1549588392377971,-0.3071815296127437,-0.0038454799450342103,1.0,0.00176817402421228,-0.003478757752391742,-9.042374225508683e-05,-0.1255881358796831,-0.6134106164956533,0.36694312100862647,-7.195670142821346,-35.14583943371885,21.024292155152548,7.099409210128288e-06,9.276285303821818e-06,2.9751286154996e-05,3.1962323257973784e-05,6.929036555835492e-06,8.437407455578476e-06,2.9576143903769315e-05,3.1526967510054416e-05,1.0,1.798766884999431e-16,0.0,2.7755575615628914e-17,1.1102230246251565e-16,2.7755575615628914e-17,0.0,-5.551115123125783e-17,1.1102230246251565e-16,-5.551115123125783e-17,0.0
190.0,2026-01-01T12:03:10.000,6719437.895537701,-175146.1818597739,1426451.1806030397,-1592.1866977592451,-908.1531502567163,7396.313865347169,6871410.683960899,7620.056392151535,1523687.198447943,6543009.549217483,1443498.5790733232,12.200186321817469,76.8910190142549,494221.52232544497,0.21293342067249135,1.3420014470123127,494.221522325445,31293.41087916347,-737.9697777389297,6986.656499261617,-2.3299689024535385e-06,-1.3259118196802795e-05,2.911017970470966e-05,-1.3382769470611252e-05,-3.8623666498798984e-07,2.914425904734537e-05,3.2072348415475874e-05,32072.348415475873,0.9320490477742402,0.16331187558243618,-0.32341254227244937,-0.0042580908574223015,1.0,0.001770782520139704,-0.0034773864273168393,-9.548210648879318e-05,-0.14264579606822358,-0.6453547865473397,0.3946820801156537,-8.173002079993044,-36.97610555772868,22.613617440071188,6.990885543329875e-06,9.894470766231426e-06,2.969616979443529e-05,3.2072348415475874e-05,8.78582685456427e-06,8.828639650538184e-06,3.076444814902677e-05,3.319016272198126e-05,1.0,2.0014830212433605e-16,0.0,2.7755575615628914e-17,-1.1102230246251565e-16,2.7755575615628914e-17,0.0,-2.7755575615628914e-17,-1.1102230246251565e-16,-2.7755575615628914e-17,-1.1102230246251565e-16
200.0,2026-01-01T12:03:20.000,6703103.594634175,-184216.76857351052,1500325.181104694,-1674.6399383762932,-905.9456220541388,7378.334990915854,6871427.018260334,7620.038295933773,1534005.7888518278,6523882.542097296,1517330.5783399004,12.834167487889282,76.76801348244108,494337.26904640155,0.22399847941607742,1.3398545954839949,494.33726904640156,31221.773759320484,-687.3728926089896,7817.8499371527605,-2.663080829645855e-06,-1.4328672787163446e-05,2.8705183372776087e-05,-1.449830780133578e-05,-2.85916201563814e-07,2.8742090018558776e-05,3.21930181221259e-05,32193.018122125897,0.9248008377714974,0.17162340100566176,-0.3395097186171572,-0.004687179203443365,1.0,0.0017735319304875037,-0.003475938246137141,-0.00010054607567184102,-0.1613121030072503,-0.6768606866495954,0.4238680542763513,-9.242502686695037,-38.781260663348725,24.285850580457037,6.883051946574793e-06,1.0510037351107114e-05,2.9640396869654308e-05,3.21930181221259e-05,5.500182174958988e-06,9.97515232112134e-06,2.9903149934759312e-05,3.199928192644336e-05,1.0,3.925231146709438e-17,0.0,2.7755575615628914e-17,0.0,2.7755575615628914e-17,0.0,0.0,0.0,0.0,0.0
210.0,2026-01-01T12:03:30.000,6685945.7845699685,-193264.72335492354,1574014.859309171,-1756.886839205878,-903.6268105407614,7359.449786649732,6871444.1760687,7620.0192874245195,1544108.2468868191,6503942.621641478,1590976.1661068192,13.468082669698113,76.64460265327229,494458.5219107936,0.23506238651702,1.3377006701823833,494.4585219107936,31140.020015295595,-636.9287701433168,8644.933448155041,-2.9975671398913186e-06,-1.5383440896733465e-05,2.8270227033980973e-05,-1.5599874437262644e-05,-1.8287850908979671e-07,2.83099253288812e-05,3.232400654520223e-05,32324.00654520223,0.9172003289834862,0.17989122296924806,-0.3554664099133324,-0.005131845139868515,1.0,0.0017764222371664648,-0.0034744127766225593,-0.00010561593363794374,-0.18172296349838188,-0.7078759041238192,0.4546509951890274,-10.411958849067195,-40.558301725302144,26.049583175753966,6.776065451314935e-06,1.112254028557223e-05,2.9584040186046182e-05,3.2324006545202224e-05,7.662287782674212e-06,1.1633766865365085e-05,3.0477387421246105e-05,3.351009295073524e-05,1.0,2.220446049250313e-16,0.0,5.551115123125783e-17,1.1102230246251565e-16,5.551115123125783e-17,0.0,-5.551115123125783e-17,1.1102230246251565e-16,-5.551115123125783e-17,-1.1102230246251565e-16
220.0,2026-01-01T12:03:40.000,6667966.5794188455,-202288.93479630316,1647511.1635270587,-1838.9172694837405,-901.1970030905544,7339.660593021972,6871462.155271901,7619.999368972715,1553992.1546506074,6483192.549925484,1664426.296117992,14.101928575165376,76.520763607324,494585.2268864269,0.24612508451770848,1.3355392710880571,494.58522688642694,31048.282300024097,-586.6250457475587,9467.519968104518,-3.3331525871186564e-06,-1.642247795011407e-05,2.780586644724e-05,-1.6686494886091877e-05,-7.716997095142881e-08,2.78483182667241e-05,3.246496414710397e-05,32464.964147103972,0.9092504022280345,0.1881131479609117,-0.3712760276112773,-0.00559114778769425,1.0,0.0017794534199716105,-0.0034728095641026894,-0.00011069196246571343,-0.20402774231581833,-0.7383414774667633,0.4871937379182525,-11.689928538279103,-42.303850498299106,27.91414498791861,6.670092701047189e-06,1.1731549451800264e-05,2.9527182525465388e-05,3.246496414710398e-05,6.621367628798751e-06,1.1069197659135697e-05,3.048515840672254e-05,3.310157895290926e-05,1.0,4.1168171577819285e-16,2.220446049250313e-16,8.326672684688674e-17,-5.551115123125783e-17,8.326672684688674e-17,2.220446049250313e-16,2.7755575615628914e-17,-5.551115123125783e-17,2.7755575615628914e-17,2.220446049250313e-16
230.0,2026-01-01T12:03:50.000,6649168.194427588,-211288.2944324442,1720805.0660337228,-1920.721125582747,-898.6565008241952,7318.9698624636885,6871480.953654673,7619.978543039684,1563655.1251649118,6461635.191876098,1737671.9463387749,14.735701905922012,76.396472979646,494717.32753896376,0.2571865158507428,1.3333699904057057,494.71732753896373,30946.702206019996,-536.449573884602,10285.231977527994,-3.6695613576642406e-06,-1.7444868425154383e-05,2.73126900446726e-05,-1.7757222718480177e-05,3.115939147946049e-08,2.7357854865167752e-05,3.261552011550588e-05,32615.52011550588,0.9009540716026953,0.19628698150031557,-0.38693204619747185,-0.006064105989988913,1.0,0.0017826254564020565,-0.0034711281314291327,-0.00011577444238151992,-0.22838952612347713,-0.7681909929082077,0.5216723183132458,-13.085755931868102,-44.01410175360446,29.88962212815423,6.565310798032674e-06,1.2336650694278316e-05,2.946991510299218e-05,3.261552011550588e-05,6.674006473151059e-06,1.0860964370940395e-05,2.84366278889887e-05,3.1163194880616926e-05,0.9999999999999998,7.850462293418876e-17,0.0,0.0,0.0,0.0,0.0,-5.551115123125783e-17,0.0,-5.551115123125783e-17,0.0
240.0,2026-01-01T12:04:00.000,6629552.945738285,-220261.69687792158,1793887.564187325,-2002.2883322777432,-896.0056185704645,7297.380159049537,6871500.568900846,7619.956812198824,1573094.802817645,6439273.514869704,1810704.1200732694,15.369399356487468,76.27170693185552,494854.76506037416,0.26824662282460404,1.331192412077061,494.8547650603742,30835.429841276222,-486.3904240769871,11097.701844390433,-4.006517572457852e-06,-1.844972696382687e-05,2.6791317385856845e-05,-1.881114074367234e-05,1.4205607979396504e-07,2.6839152359190353e-05,3.277528482512225e-05,32775.28482512225,0.8923144834582072,0.20441052815319694,-0.4024280060240305,-0.006549699105071151,1.0,0.0017859383214716856,-0.0034693679789368115,-0.00012086365166098823,-0.2549848895765592,-0.7973495995975879,0.5582757887706212,-14.609558012346177,-45.68476685338787,31.986846500893634,6.461908021798903e-06,1.2937447034301934e-05,2.9412335920839955e-05,3.277528482512225e-05,5.842455735797291e-06,1.3234607778355698e-05,2.965476165691052e-05,3.299536362884692e-05,1.0,2.387624894196368e-16,2.220446049250313e-16,5.551115123125783e-17,0.0,5.551115123125783e-17,0.0,2.7755575615628914e-17,0.0,2.7755575615628914e-17,0.0
250.0,2026-01-01T12:04:10.000,6609123.250098013,-229208.03996397118,1866749.6815436285,-2083.6088440066032,-893.2446848258894,7274.894158169031,6871520.998593651,7619.9341791352845,1582308.863799652,6416110.5883173905,1883513.8470783846,16.003017613369497,76.14644112316455,494997.4782985623,0.2793053476079427,1.3290061112752305,494.99747829856227,30714.62339789241,-436.4358801133899,11904.572134161874,-4.343745774838641e-06,-1.9436199385268402e-05,2.6242397576230297e-05,-1.9847362087452793e-05,2.5546328038669497e-07,2.6292857606794853e-05,3.294385230129097e-05,32943.85230129097,0.8833349153261713,0.21248159155384017,-0.4177575161145357,-0.007046867833769958,1.0000000000000002,0.001789391987510455,-0.00346752858440446,-0.00012595986652905807,-0.2840029101224002,-0.8257329612644766,0.5972052792658927,-16.27216811944678,-47.311013685294,34.21734200486734,6.360084412727154e-06,1.3533559786539765e-05,2.9354548032909876e-05,3.2943852301290965e-05,7.350569766794922e-06,1.290630714020323e-05,2.961308772398659e-05,3.31291201881714e-05,0.9999999999999998,3.532708032038494e-16,-2.220446049250313e-16,0.0,1.1102230246251565e-16,0.0,0.0,-2.7755575615628914e-17,1.1102230246251565e-16,-2.7755575615628914e-17,-2.220446049250313e-16
260.0,2026-01-01T12:04:20.000,6587881.624555917,-238126.22487495802,1939382.4689674412,-2164.6726461273133,-890.3740417126388,7251.514646183638,6871542.240216018,7619.910646645625,1591295.0165386933,6392149.583236253,1956092.184674504,16.636553354078917,76.02065068023926,495145.40378812427,0.2903626322123831,1.326810653878642,495.14540378812427,30584.44871445483,-386.5744430607711,12705.495887058914,-4.680971402131244e-06,-2.0403463600653795e-05,2.566660765532605e-05,-2.0865031171708797e-05,3.713210259201016e-07,2.5719645479721267e-05,3.312080265789488e-05,33120.802657894885,0.8740187748011853,0.22049797443571217,-0.4329142569455463,-0.007554515078329744,1.0,0.0017929864239560121,-0.0034656094030145967,-0.0001310633610585235,-0.3156430964840247,-0.8532461788779189,0.6386719690080978,-18.08501726097525,-48.88740493536924,36.593208317474115,6.260052215331865e-06,1.4124629573067828e-05,2.9296657734085528e-05,3.312080265789489e-05,7.185642609299202e-06,1.3615283033347589e-05,2.9853432971642938e-05,3.358923714494148e-05,1.0000000000000002,3.260541871072589e-16,2.220446049250313e-16,5.551115123125783e-17,0.0,5.551115123125783e-17,0.0,2.7755575615628914e-17,0.0,2.7755575615628914e-17,2.220446049250313e-16
270.0,2026-01-01T12:04:30.000,6565830.686147737,-247015.15628441505,2011777.0057405636,-2245.469756170926,-887.39404493468,7227.244520069695,6871564.291150884,7619.886217637458,1600051.0021269491,6367393.771807898,2028430.2188526217,17.270003246054117,75.89431016584233,495298.47578228754,0.3014184184737527,1.3246055959237524,495.29847578228754,30445.07883327357,-336.79483865541806,13500.136862382184,-5.017921239196973e-06,-2.1350730429928693e-05,2.5064650960593293e-05,-2.1863324595258028e-05,4.895663551759872e-07,2.5120217229492715e-05,3.3305704484827184e-05,33305.70448482718,0.8643695983780552,0.2284574786719657,-0.44789198320126034,-0.008071506838855306,0.9999999999999998,0.0017967215971363235,-0.00346360986731269,-0.0001361744070670538,-0.3501118044849832,-0.8797827428519089,0.6828935427028133,-20.059928754698984,-50.40783805385778,39.12691785360806,6.162036176915623e-06,1.471031723087153e-05,2.9238772688882564e-05,3.3305704484827184e-05,5.8001102358489715e-06,1.414726338430646e-05,2.8957034794884233e-05,3.274593416174097e-05,1.0,4.458205583648681e-16,2.220446049250313e-16,2.220446049250313e-16,0.0,2.220446049250313e-16,0.0,-2.7755575615628914e-17,0.0,-2.7755575615628914e-17,2.220446049250313e-16
280.0,2026-01-01T12:04:40.000,6542973.151567834,-255873.74249063473,2083924.4006660937,-2325.9902250901987,-884.3050637321999,7202.086787047194,6871587.148681534,7619.86089512908,1608574.5947456018,6341846.526923258,2100519.065377808,17.903363945489343,75.76739354613878,495456.6262859416,0.3124726480316316,1.3223904830344237,495.4566262859416,30296.693553657147,-287.0860296047684,14288.16974995037,-5.354323852320595e-06,-2.2277244320789403e-05,2.4437255472583836e-05,-2.2841451915967003e-05,6.101334701056997e-07,2.4495298834576928e-05,3.3498117163148165e-05,33498.11716314816,0.8543910502440211,0.23635790532527204,-0.46268452650166075,-0.008596673141542973,1.0,0.0018005974700425662,-0.0034615293871660315,-0.00014129327401257767,-0.38761662415645204,-0.9052236064097097,0.7300886156742358,-22.208796633273376,-51.86549216288794,41.83099634868251,6.066273698937576e-06,1.5290304609459805e-05,2.9181000014316037e-05,3.349811716314817e-05,5.170434053348536e-06,1.557727709024539e-05,2.881159767411331e-05,3.315860537449188e-05,1.0000000000000002,2.482534153247273e-16,0.0,5.551115123125783e-17,5.551115123125783e-17,5.551115123125783e-17,0.0,0.0,5.551115123125783e-17,0.0,2.220446049250313e-16
290.0,2026-01-01T12:04:50.000,6519311.836828742,-264700.8955517959,2155815.793168947,-2406.2241385037787,-881.107480834299,7176.0445641945225,6871610.809991929,7619.834682249096,1616863.6020837019,6315511.321714498,2172349.8708888576,18.53663209606042,75.63987415659703,495619.785089773,0.32352526230711215,1.320164849826787,495.619785089773,30139.478982487606,-237.4372332803897,15069.280348728735,-5.689910001919334e-06,-2.3182283970685822e-05,2.3785172147299745e-05,-2.3798656334585247e-05,7.329538889517494e-07,2.3845639334459413e-05,3.369759308918282e-05,33697.59308918282,0.8440869210264563,0.24419705470751868,-0.47728579810265404,-0.009128809000228501,1.0,0.0018046140020924932,-0.0034593673497223306,-0.0001464202288869908,-0.42835815735315014,-0.9294365147355437,0.780468547346425,-24.543114536336315,-53.2527896196954,44.71755380565642,5.9730148395483695e-06,1.5864295255884648e-05,2.912344433209769e-05,3.369759308918283e-05,6.285508958276056e-06,1.6145041914790556e-05,2.9669975508127632e-05,3.435807689536488e-05,1.0,3.1401849173675503e-16,2.220446049250313e-16,1.1102230246251565e-16,1.1102230246251565e-16,1.1102230246251565e-16,0.0,0.0,1.1102230246251565e-16,0.0,0.0
300.0,2026-01-01T12:05:00.000,6494849.656908318,-273495.53142060956,2227442.354392457,-2486.161617935749,-877.8016924099647,7149.1210780491565,6871635.272167066,7619.807582236012,1624915.8657514453,6288391.729074037,2243913.8139939834,19.169804327541488,75.5117246663859,495787.8798055019,0.3345762024786565,1.3179282192878508,495.7878798055019,29973.627083433585,-187.83794521868617,15843.165712860788,-6.0244130327344124e-06,-2.4065162853012726e-05,2.310917324147645e-05,-2.4734215281128337e-05,8.579565943916031e-07,2.317200915640489e-05,3.3903679791957314e-05,33903.679791957315,0.8334611264962775,0.2519727264496672,-0.49168979156739484,-0.00966667541035095,0.9999999999999999,0.0018087711488840982,-0.0034571231193682318,-0.00015155553610811284,-0.47251860573891635,-0.9522757766141587,0.8342260631976083,-27.073321850246028,-54.56138293253407,47.797632581036844,5.882522167122377e-06,1.6432014985168865e-05,2.906620580530033e-05,3.3903679791957314e-05,6.847907276095163e-06,1.613352950065944e-05,2.8742907493256174e-05,3.366510566412242e-05,1.0000000000000002,2.387624894196368e-16,0.0,5.551115123125783e-17,0.0,5.551115123125783e-17,0.0,2.7755575615628914e-17,0.0,2.7755575615628914e-17,2.220446049250313e-16
310.0,2026-01-01T12:05:10.000,6469589.625384501,-282256.5700784651,2298795.2882909095,-2565.7928220503804,-874.3881080173312,7121.319664194421,6871660.532193344,7619.77959843784,1632729.2616890506,6260491.421160408,2315202.1063624197,19.8028772543057,75.38291704115115,495960.83590216417,0.3456254094559289,1.3156801021258293,495.96083590216415,29799.335226209987,-138.27796877154776,16609.5342654381,-6.357569240355349e-06,-2.4925229649052666e-05,2.2410050636522953e-05,-2.5647440905065055e-05,9.850681757468706e-07,2.2475198440631756e-05,3.411592193148896e-05,34115.92193148896,0.8225177062274218,0.2596827195821956,-0.5058905854076721,-0.010209000375072323,0.9999999999999999,0.0018130688619395266,-0.003454796037687936,-0.00015669945740983657,-0.5202467164111524,-0.9735827217433729,0.8915202326883284,-29.807941155898455,-55.78218096275487,51.08034668356231,5.795070465858637e-06,1.6993212334854308e-05,2.9009378174544495e-05,3.411592193148897e-05,6.015352254952238e-06,1.5105877900896276e-05,2.7662265702121407e-05,3.20869592464401e-05,1.0000000000000007,6.764620867324401e-16,4.440892098500626e-16,1.6653345369377348e-16,5.551115123125783e-17,1.6653345369377348e-16,0.0,2.7755575615628914e-17,5.551115123125783e-17,2.7755575615628914e-17,4.440892098500626e-16
320.0,2026-01-01T12:05:20.000,6443534.854057761,-290982.9356690612,2369865.8327178815,-2645.1079478819183,-870.8671505512317,7092.643766832343,6871686.586958937,7619.750734311655,1640301.7005725782,6231814.16889069,2386205.99381179,20.435847473702616,75.25342250404718,496138.57674341823,0.356672823851476,1.313419996090019,496.13857674341824,29616.805737352995,-88.74745116484183,17368.105880479976,-6.6891182131318525e-06,-2.576186858763115e-05,2.1688614166749518e-05,-2.653768047098855e-05,1.1142129644077058e-06,2.1756015369534363e-05,3.433386316844868e-05,34333.86316844868,0.8112608222127635,0.2673248326265743,-0.5198823456942575,-0.010754479963323927,1.0,0.0018175070884391934,-0.003452385423422084,-0.00016185225173041292,-0.5716389667305791,-0.993187137076146,0.9524576849433067,-32.752500198881464,-56.90543122114433,54.571805512052535,5.710946295746128e-06,1.7547658903101812e-05,2.8953046808535576e-05,3.433386316844868e-05,4.688246683391726e-06,1.6350412075500327e-05,2.945282103525901e-05,3.4011531852270283e-05,1.0,3.6188843062238402e-16,2.220446049250313e-16,1.1102230246251565e-16,5.551115123125783e-17,1.1102230246251565e-16,0.0,2.7755575615628914e-17,5.551115123125783e-17,2.7755575615628914e-17,2.220446049250313e-16
330.0,2026-01-01T12:05:30.000,6416688.552561268,-299673.55663150345,2440645.2605102295,-2724.0972320592555,-867.2392561890535,7063.096938342668,6871713.433254186,7619.720993423172,1647631.128210387,6202363.841421191,2456916.7573911003,21.06871156430419,75.12321149496222,496321.02362591587,0.36771838595011314,1.3111473852591422,496.32102362591587,29426.245454035256,-39.23692613111882,18118.611933744898,-7.018803148714589e-06,-2.657449969485231e-05,2.0945689957388237e-05,-2.7404316661882324e-05,1.2453131617404287e-06,2.1015284506463877e-05,3.455704789855675e-05,34557.04789855675,0.7996947574368359,0.27489686369823907,-0.533659328635147,-0.0113017793995515,1.0,0.0018220857709460591,-0.0034498905724270786,-0.0001670141750988159,-0.6267174936373603,-1.0109100002529128,1.0170705676657428,-35.90826733243777,-57.92087648206088,58.273850994221874,5.630447410357308e-06,1.80951495704967e-05,2.8897286783428295e-05,3.455704789855675e-05,5.024968354997247e-06,1.7516987016457308e-05,3.029651508121436e-05,3.5354970897593835e-05,1.0000000000000002,3.236828524569469e-16,2.220446049250313e-16,-5.551115123125783e-17,0.0,-5.551115123125783e-17,-2.220446049250313e-16,0.0,0.0,0.0,0.0
340.0,2026-01-01T12:05:40.000,6389054.027958851,-308327.365832852,2511124.8805676065,-2802.75095202531,-863.5048743349012,7032.68283882811,6871741.067772003,7619.690379446289,1654715.525938893,6172144.4056141665,2527325.714459227,21.70146608401145,74.99225362772982,496508.0958186142,0.3787620356758802,1.3088617392945474,496.50809581861415,29227.865282474002,10.26263682067821,18860.795323149574,-7.3463711447576735e-06,-2.7362578956649254e-05,2.018211877773272e-05,-2.8246767792507578e-05,1.3782889588805875e-06,2.025384514940036e-05,3.478502284768409e-05,34785.02284768409,0.7878239144057166,0.28239661062154153,-0.5472158831206563,-0.011849534184932124,1.0,0.0018268048471200195,-0.0034473107576350045,-0.0001721854805191307,-0.6854062309789913,-1.026567799255177,1.0852927129934637,-39.270884287065066,-58.81800228135477,62.18269199082843,5.55388203702246e-06,1.863550260642504e-05,2.884216100500566e-05,3.478502284768409e-05,5.497618065961034e-06,1.9173018174892124e-05,2.800854332499578e-05,3.438469033628325e-05,1.0000000000000002,2.3956776148459464e-16,0.0,5.551115123125783e-17,-2.7755575615628914e-17,5.551115123125783e-17,0.0,1.3877787807814457e-17,-2.7755575615628914e-17,1.3877787807814457e-17,2.220446049250313e-16
350.0,2026-01-01T12:05:50.000,6360634.684330779,-316943.3007001028,2581296.0389273628,-2881.059427250971,-859.664467562077,7001.40523564589,6871769.4871082865,7619.65889616262,1661552.9110102598,6141159.925492611,2597424.2197587574,22.33410756801244,74.86051764525799,496699.71060311963,0.38980371255640045,1.3065625126570644,496.6997106031196,29021.879762514047,59.7597765397619,19594.41045973407,-7.671573463491669e-06,-2.812559839727415e-05,1.9398754414517205e-05,-2.9064487935851823e-05,1.5130586479524307e-06,1.9472549704643986e-05,3.501733852601094e-05,35017.33852601094,0.7756528136343863,0.289821871057068,-0.5605464532344642,-0.012396351249572652,1.0,0.0018316642494223294,-0.00344464522901435,-0.0001773664178529042,-0.7475079516506551,-1.039978611632757,1.156936707270115,-42.82905078205174,-59.586385230431915,66.28759049033998,5.481568024965518e-06,1.916855966158623e-05,2.878771838706804e-05,3.501733852601095e-05,5.576130467097888e-06,1.8018537606675647e-05,2.8548685311167476e-05,3.421678479146384e-05,1.0000000000000004,4.615277368146234e-16,2.220446049250313e-16,1.6653345369377348e-16,5.551115123125783e-17,1.6653345369377348e-16,2.220446049250313e-16,4.163336342344337e-17,5.551115123125783e-17,4.163336342344337e-17,2.220446049250313e-16
360.0,2026-01-01T12:06:00.000,6331434.022347432,-325520.30335158465,2651150.119834687,-2959.013020443421,-855.7185115538862,6969.268002925635,6871798.687762336,7619.626547461021,1668141.3369757002,6109414.561682144,2667203.666485042,22.96663252658247,74.72797137239594,496895.7833149235,0.4008433556844882,1.3042491437843748,496.8957833149235,28808.50663996823,109.26247792756647,20319.223230276653,-7.994165770169749e-06,-2.8863086077191376e-05,1.859646207039604e-05,-2.985696696596961e-05,1.649538724408433e-06,1.867226208539468e-05,3.525355054169709e-05,35253.55054169709,0.7631860920915574,0.2971704426401236,-0.5736455807310213,-0.012940810131487361,1.0,0.001836663904809496,-0.0034418932135320394,-0.00018255723369933993,-0.8126861767209543,-1.0509698874680156,1.231675827069482,-46.563487994733656,-60.21613894725636,70.56982661936635,5.413831868063785e-06,1.969418564889654e-05,2.873399209868211e-05,3.525355054169709e-05,6.55414000552118e-06,1.776686522570419e-05,2.926841574222797e-05,3.4860556668249116e-05,1.0000000000000002,4.1168171577819285e-16,2.220446049250313e-16,5.551115123125783e-17,8.326672684688674e-17,5.551115123125783e-17,2.220446049250313e-16,2.7755575615628914e-17,8.326672684688674e-17,2.7755575615628914e-17,2.220446049250313e-16
370.0,2026-01-01T12:06:10.000,6301455.638830924,-334057.32072775654,2720678.54680787,-3036.602138748715,-851.6674950427762,6936.275121073711,6871828.666137307,7619.5933373370935,1674478.8940644616,6076912.570840098,2736655.4873503344,23.59903744271629,74.59458166638194,497096.2273856053,0.411880903676822,1.3019210542261632,497.0962273856053,28587.96644828218,158.77810346070493,21035.01093282118,-8.313908345625469e-06,-2.9574606014158707e-05,1.7776116792088757e-05,-3.062373052090851e-05,1.787643980337792e-06,1.7853856139794912e-05,3.549322077634198e-05,35493.22077634198,0.7504285016032045,0.3044401231330091,-0.5865079074758321,-0.013481464187852368,1.0,0.0018418037344173734,-0.0034390539151165447,-0.00018775817127338263,-0.8804567450381628,-1.059387537918484,1.3090356351171584,-50.446455534512715,-60.6984347914846,75.00221712444039,5.351007609246651e-06,2.0212268515642794e-05,2.868099789225426e-05,3.549322077634198e-05,5.888743211578929e-06,1.9418118559946e-05,2.7334940037865806e-05,3.404320155176001e-05,1.0,2.3055512673781017e-16,2.220446049250313e-16,0.0,4.163336342344337e-17,0.0,0.0,-1.3877787807814457e-17,4.163336342344337e-17,-1.3877787807814457e-17,0.0
380.0,2026-01-01T12:06:20.000,6270703.226304732,-342553.3047213878,2789872.78369853,-3113.817234948414,-847.5119197478201,6902.430676264056,6871859.418540655,7619.559269892681,1680563.709553755,6043658.305073121,2805771.1556428703,24.2313187695813,74.46031436474846,497300.95438592846,0.42291629462949487,1.2995776477348906,497.30095438592843,28360.48210106397,208.31331892713524,21741.5621865448,-8.630566273408878e-06,-3.0259758031585882e-05,1.693860193242577e-05,-3.136433988975683e-05,1.9272875887536205e-06,1.70182141126809e-05,3.5735918426073877e-05,35735.91842607388,0.7373849072145747,0.3116287105908219,-0.5991281778489627,-0.014016841835334725,1.0,0.0018470836532349512,-0.003436126514622507,-0.00019296947028157798,-0.9501936252324017,-1.0651055257954005,1.388399818174756,-54.442084446052064,-61.02605136413889,79.54944985814441,5.29343563468659e-06,2.072271891039548e-05,2.8628732523413862e-05,3.573591842607388e-05,5.665565142400459e-06,1.9993226201331676e-05,2.8961408734768565e-05,3.5645349180821995e-05,1.0000000000000004,7.114312260401321e-16,4.440892098500626e-16,1.6653345369377348e-16,4.163336342344337e-17,1.6653345369377348e-16,2.220446049250313e-16,-4.163336342344337e-17,4.163336342344337e-17,-4.163336342344337e-17,4.440892098500626e-16
390.0,2026-01-01T12:06:30.000,6239180.572531368,-351007.212307105,2858724.335746694,-3190.6488086501586,-843.2523003105484,6867.738859915581,6871890.94118459,7619.524349335349,1686393.9481392715,6009656.211340737,2874542.18628076,24.863472927780492,74.32513423041493,497509.8740698057,0.43394946607024387,1.2972183093074823,497.50987406980573,28126.278496956216,257.8740138786825,22438.676817539003,-8.94390960228309e-06,-3.091817753848233e-05,1.608480765015276e-05,-3.2078391828138735e-05,2.0683811790333676e-06,1.616622514491124e-05,3.5981220913378383e-05,35981.22091337838,0.7240602855112621,0.31873400354063597,-0.6115012411108178,-0.014545447818374175,1.0,0.001852503569767796,-0.0034331101697971365,-0.00019819136679566569,-1.0211518074929475,-1.0680347957597451,1.4690331044072873,-58.50768881150141,-61.19388617015027,84.16939684753878,5.241461366407331e-06,2.1225469748700442e-05,2.8577172272791438e-05,3.5981220913378383e-05,5.563313511930773e-06,2.2627248640021355e-05,2.843781664531841e-05,3.676482359269698e-05,1.0000000000000004,3.473954305113485e-16,2.220446049250313e-16,-5.551115123125783e-17,-2.0816681711721685e-17,-5.551115123125783e-17,0.0,-8.673617379884035e-17,-2.0816681711721685e-17,-8.673617379884035e-17,2.220446049250313e-16
400.0,2026-01-01T12:06:40.000,6206891.560038208,-359418.0056702887,2927224.7506305706,-3267.087407472,-838.8891642291441,6832.203968156228,6871923.230186565,7619.488579977851,1691967.812294094,5974910.830848285,2942960.1368605597,25.495496302412615,74.18900489388969,497722.8944191321,0.44498035490714005,1.2948424041765614,497.7228944191321,27885.5821382727,307.4652174102203,23126.165722227743,-9.253713484995888e-06,-3.1549535245559794e-05,1.5215629450962504e-05,-3.276551830675338e-05,2.2108349038444666e-06,1.5298783813753423e-05,3.622871467582326e-05,36228.71467582326,0.7104597228996664,0.32575380117453223,-0.6236220537292934,-0.015065764505360273,1.0,0.0018580633856910742,-0.0034300040152485923,-0.0002034240931238403,-1.09250684710897,-1.068130216109973,1.5501208323584543,-62.59603142848829,-61.19935335349799,88.81538142944565,5.195433862413395e-06,2.1720475682081448e-05,2.852627157880273e-05,3.622871467582326e-05,4.47193636979153e-06,2.1699751317037762e-05,2.8846268262774497e-05,3.637285546674467e-05,1.0000000000000002,1.0324884100432877e-16,0.0,5.551115123125783e-17,-3.642919299551295e-17,5.551115123125783e-17,0.0,-3.0357660829594124e-17,-3.642919299551295e-17,-3.0357660829594124e-17,0.0
410.0,2026-01-01T12:06:50.000,6173840.165631478,-367784.6523353041,2995365.619510915,-3343.1236282203254,-834.4230517910072,6795.830401273755,6871956.281569748,7619.451966237589,1697283.542625639,5939426.798426642,3011016.6087003835,26.127385239916148,74.05188879228284,497939.92168943165,0.45600889737350536,1.2924492767460227,497.9399216894316,27638.620764718908,357.09100998932456,23803.85071026848,-9.559758294574716e-06,-3.215353682217829e-05,1.43319667727863e-05,-3.3425386197755856e-05,2.3545574980506065e-06,1.4416788717372579e-05,3.64779958386164e-05,36477.9958386164,0.696588413847256,0.3326859035568022,-0.6354856816673646,-0.015576253211963244,1.0,0.0018637629954920537,-0.0034268071624166236,-0.00020866787767962527,-1.1634066285170879,-1.0653943539726054,1.6308207404112067,-66.65828967157354,-61.04259999969718,93.43914556796216,5.1557043338203006e-06,2.2207712475326156e-05,2.8475961789509157e-05,3.6477995838616406e-05,6.8148919090607364e-06,2.2842823721240732e-05,2.8932832848658667e-05,3.748794691551248e-05,1.0000000000000004,8.673374515197245e-16,4.440892098500626e-16,2.220446049250313e-16,5.551115123125783e-17,2.220446049250313e-16,0.0,5.724587470723463e-17,5.551115123125783e-17,5.724587470723463e-17,6.661338147750939e-16
420.0,2026-01-01T12:07:00.000,6140030.459898522,-376106.12529304967,3063138.578069817,-3418.7481180612604,-829.8545160036991,6758.622663153318,6871990.091263534,7619.414512636046,1702339.4182258886,5903208.841900098,3078703.247877428,26.759136044683036,73.91374710495198,498160.8604563057,0.46703502896881144,1.2900382494678388,498.16086045630567,27385.623003419754,406.7544321577707,24471.56432890152,-9.861829719533808e-06,-3.272992249896946e-05,1.3434721617936538e-05,-3.405769690394825e-05,2.4994563302429152e-06,1.3521141106026564e-05,3.672867077852231e-05,36728.67077852231,0.68245165908312,0.33952811184579296,-0.6470873026300471,-0.016075355551205758,1.0,0.001869602286102051,-0.0034235186995457342,-0.0002139229448483147,-1.2330275820221734,-1.059877392220678,1.7103192090316004,-70.64727647309148,-60.72650137557663,97.99407229766393,5.122624588719694e-06,2.2687176297401683e-05,2.8426150040600626e-05,3.672867077852232e-05,6.885927479939255e-06,2.129841324307883e-05,2.7886398507850878e-05,3.57587699127166e-05,1.0000000000000004,7.473417450352271e-16,4.440892098500626e-16,2.7755575615628914e-16,6.938893903907228e-17,2.7755575615628914e-16,0.0,-1.3877787807814457e-17,6.938893903907228e-17,-1.3877787807814457e-17,4.440892098500626e-16
430.0,2026-01-01T12:07:10.000,6105466.606850476,-384381.40313231165,3130535.307580508,-3493.9515753588876,-825.1841225448295,6720.585360869339,6872024.65525615,7619.376223798388,1707133.75705284,5866261.781589807,3146011.746296863,27.39074497511697,73.7745396855854,498385.6138147045,0.4780586843898834,1.2876086216566873,498.3856138147045,27126.81803454122,456.45739090940174,25129.149668510843,-1.0159718838643102e-05,-3.327846661824388e-05,1.2524797233863448e-05,-3.466218593293323e-05,2.645437447361228e-06,1.2612743561735874e-05,3.698035658415485e-05,36980.35658415485,0.6680548637592899,0.3462782285308787,-0.6584222082696908,-0.016561494809863995,1.0,0.0018755811365177744,-0.0034201376916611266,-0.00021918951485093685,-1.3006262969094016,-1.0516732005025575,1.787882899644515,-74.52039753663782,-60.256435815812154,102.43814441324243,5.096545412895464e-06,2.3158882929955383e-05,2.8376718263078985e-05,3.698035658415485e-05,4.4699694714899386e-06,2.2569073126799612e-05,2.7100032115522676e-05,3.554933796206676e-05,1.0,4.344434768182728e-16,2.220446049250313e-16,1.6653345369377348e-16,-9.71445146547012e-17,1.6653345369377348e-16,-1.1102230246251565e-16,-4.163336342344337e-17,-9.71445146547012e-17,-4.163336342344337e-17,2.220446049250313e-16
440.0,2026-01-01T12:07:20.000,6070152.862806237,-392609.4701483947,3197547.5357920793,-3568.724752119575,-820.412449609394,6681.7232034421595,6872059.969000195,7619.337104452221,1711664.9161233755,5828590.529080925,3212933.842573708,28.022208240942373,73.63422499016255,498614.08283224964,0.4890797974839329,1.2851596682326256,498.61408283224966,26862.435284215848,506.20056539085346,25776.46016505388,-1.0453222182670333e-05,-3.379897715351265e-05,1.160309684643524e-05,-3.523862243861773e-05,2.792405615230024e-06,1.1692498730394406e-05,3.723268143784028e-05,37232.68143784028,0.6534035355732993,0.35293405768506025,-0.6694858063485983,-0.01703307735078741,1.0,0.0018816994174120259,-0.0034166631805476752,-0.0002244678036056935,-1.3655788060918999,-1.0409122733414187,1.8628980654161382,-78.24190218157969,-59.6398801058312,106.73619681143066,5.077814896067033e-06,2.3622866909283026e-05,2.8327522339930767e-05,3.723268143784028e-05,6.012965842881437e-06,2.320064421218425e-05,2.6956716045428108e-05,3.607062780215862e-05,1.0000000000000002,4.2139143426569925e-16,2.220446049250313e-16,5.551115123125783e-17,8.326672684688674e-17,5.551115123125783e-17,2.220446049250313e-16,6.938893903907228e-17,8.326672684688674e-17,6.938893903907228e-17,2.220446049250313e-16
450.0,2026-01-01T12:07:30.000,6034093.5767329885,-400789.3164940517,3264167.0381587124,-3643.0584532417042,-815.540087953894,6642.0410021973885,6872096.028286268,7619.29715942796,1715931.2920606667,5790200.087400914,3279461.3232629173,28.65352199727556,73.4927600012297,498846.1674705308,0.5000983011450802,1.28269063839945,498.84616747053076,26592.704119039878,555.983311409553,26413.359368375084,-1.074214177120235e-05,-3.4291295162601704e-05,1.0670522441146588e-05,-3.5786808692784144e-05,2.940264351401998e-06,1.0761308101631409e-05,3.7485284885249225e-05,37485.284885249224,0.6385032828524307,0.35949340523370843,-0.6802736228579858,-0.017488494040727418,1.0,0.0018879569907337191,-0.0034130941847321994,-0.00022975802258682953,-1.427403178258526,-1.0277527258838135,1.934893170039247,-81.78417777777345,-58.88589357620831,110.8612124519376,5.066776716746991e-06,2.407918058327091e-05,2.827839138050738e-05,3.7485284885249225e-05,4.351197635539449e-06,2.4192694430721102e-05,2.9216517948401758e-05,3.818146547359137e-05,1.0000000000000002,2.8576114088871287e-16,0.0,1.1102230246251565e-16,-2.7755575615628914e-17,1.1102230246251565e-16,0.0,5.551115123125783e-17,-2.7755575615628914e-17,5.551115123125783e-17,2.220446049250313e-16
460.0,2026-01-01T12:07:40.000,5997293.18913249,-408919.93828758533,3330385.6387200905,-3716.943538908035,-810.5676407439287,6601.543669524615,6872132.828673868,7619.256393657579,1719931.3212809525,5751095.549787864,3345586.02373696,29.284682341289496,73.35010014727462,499081.7660651877,0.5111141272561435,1.2802007542375198,499.0817660651877,26317.85357779501,605.8035679337787,27039.720722063976,-1.1026285144647217e-05,-3.4755294232135437e-05,9.727973600859554e-06,-3.630657954745105e-05,3.088915957515937e-06,9.820070845182715e-06,3.773781805606142e-05,37737.81805606142,0.6233598125999646,0.3659540792395932,-0.6907813040926476,-0.017926121702687623,0.9999999999999999,0.001894353709297093,-0.003409429699469337,-0.00023506037868087384,-1.4857650548240118,-1.0123706770675278,2.0035444519571666,-85.12806698943925,-58.00456709877094,114.79464116399717,5.063768391495301e-06,2.452789312165093e-05,2.8229127161897105e-05,3.773781805606141e-05,7.360499283187087e-06,2.7241755587658256e-05,2.87435365951731e-05,4.028003343088934e-05,0.9999999999999999,3.6821932062951477e-16,0.0,-1.1102230246251565e-16,-5.551115123125783e-17,-1.1102230246251565e-16,-2.220446049250313e-16,-5.551115123125783e-17,-5.551115123125783e-17,-5.551115123125783e-17,-2.220446049250313e-16
470.0,2026-01-01T12:07:50.000,5959756.231625054,-417000.3377407736,3396195.2111432715,-3790.370925414516,-805.4957234960316,6560.236218403722,6872170.365631375,7619.214812174156,1723663.4803498136,5711282.099134029,3411299.82922663,29.915685307143406,73.2061992175287,499320.77551533206,0.5221272066001436,1.2776892092167724,499.32077551533206,26038.112114957134,655.6577652403579,27655.427325101366,-1.1305465380254701e-05,-3.519087987892987e-05,8.776346394300547e-06,-3.679780185195474e-05,3.2382615479530674e-06,8.869682697903325e-06,3.798994380293502e-05,37989.94380293502,0.6079789285032519,0.37231389020157757,-0.7010046186826578,-0.01834432458792334,1.0,0.0019008894163595339,-0.0034056686967317857,-0.00024037507404012703,-1.5404690126949419,-0.9949511756757993,2.0686673151774038,-88.262372898105,-57.00650318780263,118.5259063763245,5.0691195015432994e-06,2.496908946207012e-05,2.8179503705075672e-05,3.798994380293503e-05,4.379581381511435e-06,2.263704318133881e-05,2.8547215167419505e-05,3.669550314256538e-05,1.0000000000000004,7.076311083754595e-16,4.440892098500626e-16,2.220446049250313e-16,2.7755575615628914e-17,2.220446049250313e-16,0.0,5.551115123125783e-17,2.7755575615628914e-17,5.551115123125783e-17,4.440892098500626e-16
480.0,2026-01-01T12:08:00.000,5921487.326382757,-425029.5232819879,3461587.6797254053,-3863.3315862992276,-800.3249639991092,6518.123761765046,6872208.634536617,7619.172420111228,1727126.2862947388,5670765.007283704,3476594.6758223106,30.54652686084727,73.06100927163214,499563.09133424866,0.5331374687706726,1.275155166620085,499.56309133424867,25753.70736658277,705.5407364890601,28260.371690091055,-1.1579501099531382e-05,-3.5597988928175384e-05,7.81653231759322e-06,-3.7260373845739846e-05,3.3882010778302054e-06,7.91103490375447e-06,3.824133678255148e-05,38241.33678255148,0.5923665289058537,0.3785706513729488,-0.7109394595763826,-0.018741455875485116,1.0,0.0019075639451890652,-0.0034018101252044027,-0.00024570230593352985,-1.5914403503261552,-0.9756804611026754,2.130198144286695,-91.18281542050988,-55.90237257456138,122.0513631942276,5.083149904457531e-06,2.540286920743319e-05,2.81292670006771e-05,3.8241336782551495e-05,4.570208809147205e-06,2.4787511947253502e-05,2.761717020161729e-05,3.739004743296724e-05,1.0000000000000002,5.926969055564841e-16,4.440892098500626e-16,0.0,-1.6653345369377348e-16,0.0,2.220446049250313e-16,0.0,-1.6653345369377348e-16,0.0,2.220446049250313e-16
