t_s,t_utc,x_eci_m,y_eci_m,z_eci_m,vx_eci_mps,vy_eci_mps,vz_eci_mps,r_norm_m,v_norm_mps,x_ecef_m,y_ecef_m,z_ecef_m,lat_deg,lon_deg,alt_m,lat_rad,lon_rad,alt_km,B_N_nT,B_E_nT,B_D_nT,Bx_ecef_T,By_ecef_T,Bz_ecef_T,Bx_eci_T,By_eci_T,Bz_eci_T,B_norm_T,B_norm_nT,q_eci_from_body_w,q_eci_from_body_x,q_eci_from_body_y,q_eci_from_body_z,omega_body_x_radps,omega_body_y_radps,omega_body_z_radps,yaw_eci_from_body_rad,pitch_eci_from_body_rad,roll_eci_from_body_rad,yaw_eci_from_body_deg,pitch_eci_from_body_deg,roll_eci_from_body_deg,Bx_body_T,By_body_T,Bz_body_T,B_body_norm_T,det_R_eci_from_body,RT_R_minus_I_fro,RT_R_minus_I_11,RT_R_minus_I_12,RT_R_minus_I_13,RT_R_minus_I_21,RT_R_minus_I_22,RT_R_minus_I_23,RT_R_minus_I_31,RT_R_minus_I_32,RT_R_minus_I_33
0.0,2026-01-01T12:00:00.000,6871258.863000001,0.0,0.0,0.0,-928.6717675671225,7563.424592946154,6871258.863000001,7620.22459151034,1289995.3972881434,6749059.6362788705,17443.144292174,0.1463587376479352,79.17916738986841,493122.0014389291,0.0025544418610190505,1.3819371699409284,493.1220014389291,30634.186002248964,-1746.662962665585,-9018.10982793216,3.3939550385911377e-06,8.452952847750707e-06,3.065712226781741e-05,9.017623552720775e-06,-1.7456712258888874e-06,3.0634385673099785e-05,3.198172115655601e-05,31981.721156556014,1.0,0.0,0.0,0.0,0.0017453292519943296,0.003490658503988659,-0.005235987755982988,0.0,-0.0,0.0,0.0,-0.0,0.0,9.017623552720775e-06,-1.7456712258888874e-06,3.0634385673099785e-05,3.198172115655601e-05,1.0,0.0,0.0,0.0,0.0,0.0,0.0,0.0,0.0,0.0,0.0
10.0,2026-01-01T12:00:10.000,6870836.748083066,-9286.52750779967,75632.69713643612,-84.42211640495762,-928.614717441409,7562.9599569585835,6871259.285114918,7620.224123852661,1303923.3489508838,6745763.504049046,93074.22188026519,0.78097253519762,79.05992368228284,493126.2266654772,0.013630542106845773,1.3798559746312749,493.1262266654772,30765.341494447912,-1690.4647881242922,-8191.489389442118,3.134615039694547e-06,7.309337262681586e-06,3.08741345501461e-05,7.847451540367748e-06,-1.6999711462656481e-06,3.085436774998839e-05,3.1882038937748e-05,31882.038937748002,0.9994669904652494,0.008657105690606988,0.017513817921139707,-0.026154457999044048,0.0017178358799593697,0.003515824110436458,-0.005227899486070475,-0.05203398730493249,0.035469246242184525,0.01639990359391726,-2.9813278638099368,2.0322381121874282,0.9396452603528896,6.826110236051048e-06,-7.790703280508424e-07,3.1132967659657975e-05,3.1882038937747995e-05,1.0,1.1189127896692703e-16,0.0,-6.2616335342363735e-18,7.113496884542054e-18,-6.2616335342363735e-18,0.0,2.6539479920913604e-18,7.113496884542054e-18,2.6539479920913604e-18,-1.1102230246251565e-16
20.0,2026-01-01T12:00:20.000,6869570.455350527,-18571.91403666011,151256.10174512412,-168.83382926581297,-928.4435741367497,7561.56610659661,6871260.55140765,7620.222720937426,1317686.3653497016,6741621.955298073,168693.8639827627,1.4155823634145037,78.9406568867156,493136.49950183457,0.02470657307474601,1.3777743763603236,493.1364995018346,30886.039190907362,-1634.7053645589162,-7360.497960091716,2.8694833454048676e-06,6.159182687058015e-06,3.105844720377351e-05,6.66961872608812e-06,-1.6515303524218372e-06,3.104166944923033e-05,3.1793027673558166e-05,31793.027673558165,0.9978686357569735,0.017171186118180706,0.035136869899985185,-0.05223730959231298,0.0016901893479495432,0.0035405509179331925,-0.005219883318190104,-0.10349745887403507,0.07198005420920763,0.030682517226248554,-5.929967583811019,4.1241533153104735,1.7579787419014874,4.554481108806487e-06,1.1646812968868348e-08,3.146511043732261e-05,3.179302767355817e-05,1.0,3.5143089978658337e-17,0.0,-1.5381697855412976e-17,1.8523638437165703e-17,-1.5381697855412976e-17,0.0,6.147892058094319e-18,1.8523638437165703e-17,6.147892058094319e-18,0.0
30.0,2026-01-01T12:00:30.000,6867460.140850647,-27855.018749088675,226860.9224503059,-253.22473634349979,-928.1583588696806,7559.243214655052,6871262.661722146,7620.220382938038,1331281.5304858256,6736635.7398004215,244292.77968827548,2.0501849675118824,78.82134822345235,493152.8152933358,0.035782477957975324,1.3756920473602265,493.15281529333583,30996.177635929762,-1579.3672065240391,-6525.597187611452,2.5987247757929965e-06,5.003656958029428e-06,3.120978843331306e-05,5.485294464835574e-06,-1.600305429784533e-06,3.119601600760844e-05,3.1714994049842035e-05,31714.994049842036,0.9952068231927246,0.025536466933765902,0.052851281696172425,-0.07821770867429934,0.0016623933004294962,0.0035648383112123413,-0.005211942784784449,-0.15452073279316517,0.10940886573085296,0.04282941945360572,-8.8533858363171,6.268666247691379,2.453944973687112,2.226041999096224e-06,6.178631378640477e-07,3.163074184622681e-05,3.171499404984203e-05,1.0,1.5794901716010975e-16,0.0,-6.617577084481182e-18,1.0163280910752016e-17,-6.617577084481182e-18,-1.1102230246251565e-16,9.538141874107865e-19,1.0163280910752016e-17,9.538141874107865e-19,-1.1102230246251565e-16
40.0,2026-01-01T12:00:40.000,6864506.064642123,-37134.70109046778,302437.8701800558,-337.58443800884845,-927.7591069980688,7555.991569100626,6871265.615798345,7620.217110143473,1344705.9501287255,6730805.715201611,319861.6806532738,2.684777092543185,78.70197887250983,493175.1666841464,0.04685819994699908,1.373608659160311,493.1751666841464,31095.66973662622,-1524.4330351436324,-5687.251544713815,2.3225142919128665e-06,3.84393595273675e-06,3.1327934600543603e-05,4.295657879250913e-06,-1.5462579612498595e-06,3.1317180788153625e-05,3.1648213264198624e-05,31648.213264198625,0.9914846058324835,0.033747365085592056,0.07063899726255547,-0.10406499801914693,0.0016344513436977672,0.003588685736513144,-0.005204081368434891,-0.20524495448053534,0.14763451729125102,0.05281672821078164,-11.75966965808937,8.458834751239857,3.02617561416734,-1.352610586941175e-07,1.03299437836676e-06,3.163106115634538e-05,3.1648213264198624e-05,1.0000000000000002,1.2936837331968384e-16,-1.1102230246251565e-16,1.055811534926e-17,-4.574050420743597e-17,1.055811534926e-17,0.0,-1.201940419754609e-18,-4.574050420743597e-17,-1.201940419754609e-18,0.0
50.0,2026-01-01T12:00:50.000,6860708.590761453,-46409.82093044698,377977.65931782674,-421.90253854709624,-927.2458680165734,7551.811573034988,6871269.413272207,7620.212902958255,1357956.7523281996,6724132.846880281,395391.2822535442,3.3193554833244794,78.58252995548807,493203.5436209917,0.057933682228139896,1.37152388227034,493.2035436209917,31184.442671850877,-1469.8858019490817,-4845.927423288038,2.0410366026036935e-06,2.6812010744503303e-06,3.1412710357460385e-05,3.1018953108243164e-06,-1.4893545863605333e-06,3.140498543153152e-05,3.159292708119864e-05,31592.92708119864,0.9867061978128967,0.041798491431372944,0.08848180021781973,-0.12974874312259016,0.0016063670454555716,0.003612092699205833,-0.005196302500839769,-0.25582190648199554,0.1865376066405516,0.06061281609454912,-14.657515548408782,10.687817580975127,3.472858546620294,-2.5050799568841305e-06,1.2525501255333283e-06,3.146853562132464e-05,3.159292708119864e-05,1.0,1.252409647730313e-16,-1.1102230246251565e-16,-3.973862898588426e-17,1.2301017005192556e-19,-3.973862898588426e-17,0.0,1.0024970893772327e-17,1.2301017005192556e-19,1.0024970893772327e-17,0.0
60.0,2026-01-01T12:01:00.000,6856068.187177278,-55679.23870428066,453471.0088535534,-506.16864746187406,-926.618705550293,7546.703744642979,6871274.053675757,7620.20776190239,1371031.087925391,6716618.207795735,470872.304735168,3.9539168843476173,78.46298251728768,493237.9333582755,0.06900886798206177,1.3694373858614186,493.2379333582755,31262.43776973859,-1415.7087094105764,-4002.0922527870125,1.7544857484211633e-06,1.5166367727151685e-06,3.146398864598594e-05,1.9051980955505974e-06,-1.4295670445527133e-06,3.145929985349343e-05,3.154934213244664e-05,31549.34213244664,0.9808769684250854,0.04968465321464337,0.10636133552672829,-0.1552387656261321,0.0015781439344356397,0.00363505876142426,-0.005188609561836876,-0.3064141758681568,0.22599968462645542,0.0661761419087643,-17.55623906022474,12.94882810038353,3.791613635831006,-4.8589064747043966e-06,1.2741732504340997e-06,3.114688586982857e-05,3.154934213244665e-05,1.0,6.878197530470249e-17,0.0,-4.0009492026734574e-17,-2.1732937451216483e-17,-4.0009492026734574e-17,0.0,-1.7099708796132355e-17,-2.1732937451216483e-17,-1.7099708796132355e-17,0.0
70.0,2026-01-01T12:01:10.000,6850585.425731677,-64941.81555409311,528908.6435341636,-590.3723807784903,-925.8776973465974,7540.66871712611,6871279.536437145,7620.201687611308,1383926.1310588024,6708262.978321657,546295.4743648755,4.588458039681121,78.34331750768729,493278.3204645493,0.08008370038204018,1.3673488374444611,493.27832046454927,31329.610356148012,-1361.8852281287,-3156.213644119258,1.463064664498228e-06,3.514281042859342e-07,3.148169056904332e-05,7.067596269382739e-07,-1.3668721974895664e-06,3.1480042124467004e-05,3.151762841542423e-05,31517.628415424228,0.9740034349470117,0.05740085641244177,0.12425913135289993,-0.18050517629686738,0.0015497855000901448,0.003657583539708268,-0.00518100587846945,-0.3571956548691664,0.2659022798481103,0.06945316837484979,-20.465803484414806,15.235078398203243,3.9793734216903753,-7.172316540860104e-06,1.0976571005448399e-06,3.067106006091222e-05,3.151762841542423e-05,1.0,1.6182318670554284e-16,-1.1102230246251565e-16,8.824457405229098e-18,-2.581836427496363e-17,8.824457405229098e-18,0.0,-4.791789995269107e-18,-2.581836427496363e-17,-4.791789995269107e-18,-1.1102230246251565e-16
80.0,2026-01-01T12:01:20.000,6844260.982068442,-74196.41347005284,604281.2950133514,-674.5033623463439,-925.0229352651489,7533.707238621297,6871285.86088072,7620.194680835785,1396639.0796692611,6699068.446065297,621651.5245796276,5.222975692855835,78.22351576270928,493324.68683036487,0.09115812259196639,1.3652579025449605,493.32468683036484,31385.92957616554,-1308.3991106834483,-2308.758560123918,1.1669847241442407e-06,-8.13241658918992e-07,3.146578513782261e-05,-4.922265843436845e-07,-1.3012520358521756e-06,3.14671782293168e-05,3.149791817861513e-05,31497.91817861513,0.9660932542432102,0.06494230795260739,0.1421566210648719,-0.20551840752344097,0.0015212951923369634,0.0036796667026581962,-0.005173494724094694,-0.4083523420627133,0.3061257571625993,0.07037634198648746,-23.396865754475993,17.539713885663673,4.032267373395063,-9.421212650959757e-06,7.249408420477568e-07,3.0047197249455066e-05,3.149791817861513e-05,1.0000000000000002,2.605700706113664e-16,2.220446049250313e-16,-2.5043261804540883e-17,4.2272476641527523e-17,-2.5043261804540883e-17,-1.1102230246251565e-16,2.6821157614674234e-17,4.2272476641527523e-17,2.6821157614674234e-17,0.0
90.0,2026-01-01T12:01:30.000,6837095.635548328,-83441.89543143801,679579.7030004624,-758.5512251402837,-924.054525266111,7525.820172104817,6871293.026227115,7620.18674244184,1409167.1559997178,6689036.005672914,696931.1971352783,5.857466586732327,78.10355798576926,493377.0116774599,0.10223207776403312,1.363164244373984,493.37701167745985,31431.3781906812,-1255.234402169605,-1460.1925135123706,8.664652649936152e-07,-1.9761933691178695e-06,3.141628890017011e-05,-1.6905694888533432e-06,-1.2326936722037834e-06,3.1420721689844076e-05,3.149030502228854e-05,31490.30502228854,0.9571552131464373,0.07230441779494519,0.1600351653674786,-0.23024924529677834,0.001492676421363605,0.0037013079686040074,-0.005166079317533876,-0.46008340042194973,0.346548004931814,0.06886212359680806,-26.3608370682052,19.85573808127178,3.945509050405338,-1.1582063490490773e-05,1.6008269181972946e-07,2.928257996199774e-05,3.1490305022288547e-05,1.0,7.768800078170059e-17,0.0,-7.803814427646545e-19,-4.6195224495331796e-17,-7.803814427646545e-19,0.0,2.9717082147452515e-17,-4.6195224495331796e-17,2.9717082147452515e-17,0.0
100.0,2026-01-01T12:01:40.000,6829090.26915129,-92677.12554757505,754794.6164083466,-842.5056125607477,-922.9725873965489,7517.008495281559,6871301.031593334,7620.177873410631,1421507.6070926748,6678167.158620915,772125.2432541704,6.491927463347076,77.98342472854519,493435.27156929247,0.11330550903604997,1.3610675234942788,493.43527156929247,31465.952349882504,-1202.375447488311,-610.9787929889518,5.617330995310312e-07,-3.13625428397035e-06,3.133326545507905e-05,-2.887082899692162e-06,-1.1611893090574647e-06,3.134073309696211e-05,3.149484337691141e-05,31494.843376911413,0.9471992176339993,0.0794828008967392,0.17787607451446644,-0.2546688606611982,0.001463932557487336,0.0037225071032908684,-0.005158762822263066,-0.5126024118692855,0.38704294067129713,0.06480907900994974,-29.369954768336793,22.17592699079764,3.713286701400012,-1.3632137534043894e-05,-5.907883637138807e-07,2.838557652573561e-05,3.149484337691141e-05,1.0,7.238294787951655e-17,0.0,-4.767468818830857e-17,1.6622356761343984e-17,-4.767468818830857e-17,0.0,-8.394458512051723e-18,1.6622356761343984e-17,-8.394458512051723e-18,0.0
110.0,2026-01-01T12:01:50.000,6820245.869365744,-101900.96919863202,829916.7945000287,-926.3561797325009,-921.777255775022,7507.273300459531,6871309.875992882,7620.168074838327,1433657.7052842018,6666463.512993014,847224.4247715162,7.126355063734166,77.8630963715347,493499.44042296614,0.12437835952833154,1.3589673974809304,493.49944042296613,31489.66134535724,-1149.8068955073948,238.42228187315095,2.530220118358042e-07,-4.292260285067501e-06,3.1216824858295485e-05,-4.080587429042694e-06,-1.0867362024599604e-06,3.122731950646071e-05,3.151154824660921e-05,31511.548246609207,0.9362362808151748,0.08647327905881555,0.19566063057741517,-0.2787488406006984,0.0014350669310706418,0.003743263917583356,-0.005151548345643439,-0.566138741982696,0.42747882110748214,0.05809606997629598,-32.43736053445435,24.49273228068666,3.3286596159384563,-1.5549728023303694e-05,-1.519541547450468e-06,2.736557371562371e-05,3.151154824660921e-05,1.0,1.1756562513912706e-16,-1.1102230246251565e-16,1.9563854486530702e-17,1.860867327040034e-17,1.9563854486530702e-17,0.0,-4.3399495254043156e-18,1.860867327040034e-17,-4.3399495254043156e-18,0.0
120.0,2026-01-01T12:02:00.000,6810563.526064829,-111112.29317624916,904937.0080340516,-1010.0925948018049,-920.4686785743716,7496.615794409684,6871319.558335873,7620.157347935975,1445614.7486935032,6653926.783243476,922219.515280418,7.760746127719527,77.74255310426622,493569.48952241783,0.1354505723401061,1.356863520575984,493.5694895224178,31502.527342342346,-1097.513700251001,1087.5540765327953,-5.942775758679588e-08,-5.443058029184285e-06,3.106712292406894e-05,-5.269913037985961e-06,-1.0093366028701184e-06,3.1080633765760555e-05,3.154039535400853e-05,31540.39535400853,0.9242785097480639,0.0932718826470811,0.21337010974875265,-0.3024612183258747,0.001406082832491233,0.0037635782651904725,-0.005144438938190138,-0.6209388887365771,0.46771634141243884,0.04858063148387158,-35.577177660149275,26.79817237223263,2.7834651501062115,-1.731436797778735e-05,-2.6161336173800363e-06,2.6232900059142315e-05,3.154039535400853e-05,1.0000000000000002,2.54377737424944e-16,0.0,-8.113619074970669e-17,-3.34452041799719e-17,-8.113619074970669e-17,2.220446049250313e-16,-6.709907208466037e-19,-3.34452041799719e-17,-6.709907208466037e-19,0.0
130.0,2026-01-01T12:02:10.000,6800044.432369709,-120309.96582398788,979846.040408342,-1093.7045402318372,-919.047018002705,7485.03729821104,6871330.07742917,7620.145694029336,1457376.0617106229,6640558.789946109,997101.3012753789,8.39509739368433,77.62177490509946,493645.3875330123,0.14652209054538617,1.3547555433358947,493.6453875330123,31504.585093502952,-1045.4811193299747,1935.9643277771838,-3.753700369938422e-07,-6.587507028237049e-06,3.0884360428076285e-05,-6.453900984789259e-06,-9.289976826136559e-07,3.090087371027134e-05,3.1581321547299185e-05,31581.321547299183,0.9113390911051583,0.09987485218518559,0.23098580465843108,-0.3257785029293806,0.0013769835121657831,0.003783450040413666,-0.005137437592878627,-0.6772676299552121,0.507606511039766,0.03609768618137171,-38.80457679726166,29.08371073593942,2.068245068380312,-1.890703204698831e-05,-3.868716927079221e-06,2.499874075200972e-05,3.1581321547299185e-05,1.0,2.3693356347985767e-16,0.0,1.2087825719376348e-16,-3.0396326667044636e-17,1.2087825719376348e-16,-1.1102230246251565e-16,1.4398450281271313e-17,-3.0396326667044636e-17,1.4398450281271313e-17,-1.1102230246251565e-16
140.0,2026-01-01T12:02:20.000,6788689.8844999485,-129492.8571775811,1054634.6888024579,-1177.1817140961957,-917.5124502825823,7472.539247081174,6871341.431976539,7620.133114558726,1468938.9954795346,6626361.459529451,1071860.5832941611,9.029405598294261,77.50074152059305,493727.10051741166,0.15759285718824334,1.3526431122714255,493.72710051741166,31495.88163549677,-993.694709876504,2783.2058000873935,-6.945532566846137e-07,-7.72448165421653e-06,3.066878221655697e-05,-7.631405763654863e-06,-8.457314553467621e-07,3.068828127271166e-05,3.163422550177533e-05,31634.22550177533,0.8974322757069493,0.1062786398147164,0.24848904668576335,-0.34867370838045797,0.0013477721806266058,0.003802879175920043,-0.0051305472444875076,-0.7354086988364107,0.5469883023491653,0.02045883751489894,-42.13581466053375,31.340121167632983,1.1722050433476268,-2.0310323747116955e-05,-5.26376521616005e-06,2.3675044839104604e-05,3.1634225501775336e-05,1.0,2.6071619445384213e-16,2.220446049250313e-16,-8.663970226277224e-17,4.2326035732413237e-17,-8.663970226277224e-17,0.0,6.0524728902201905e-18,4.2326035732413237e-17,6.0524728902201905e-18,0.0
150.0,2026-01-01T12:02:30.000,6776501.281610938,-138659.8391049661,1129293.7653180636,-1260.5138313703058,-915.8651656284028,7459.123190192049,6871353.6205788115,7620.119611078831,1480300.928376552,6611336.823998278,1146488.1770578404,9.663667476191312,77.37943244439433,493814.59195276076,0.16866281527742913,1.350525869479205,493.81459195276074,31476.47596945378,-942.1403223002864,3628.8369117904185,-1.0167209884098854e-06,-8.852873065676857e-06,3.0420676226698484e-05,-8.80129734713585e-06,-7.595546745055956e-07,3.0443141543335903e-05,3.169896883691721e-05,31698.968836917207,0.8825733619343664,0.11247991066461602,0.2658612281907115,-0.37112038187854396,0.001318452008648737,0.0038218656405414404,-0.005123770768976681,-0.7956645984486554,0.5856860862784714,0.0014526067279132923,-45.58822339907935,33.55734086329141,0.08322823480173996,-2.1508646449411208e-05,-6.786215943594799e-06,2.227442538888441e-05,3.16989688369172e-05,0.9999999999999999,1.3017049769676113e-16,0.0,-2.9068132013064883e-17,1.5598463600338446e-17,-2.9068132013064883e-17,-1.1102230246251565e-16,-3.494188100048477e-17,1.5598463600338446e-17,-3.494188100048477e-17,0.0
160.0,2026-01-01T12:02:40.000,6763480.125618428,-147809.78544608224,1203814.0981174922,-1343.690625220567,-914.1053682220004,7444.7907904712565,6871366.641734052,7620.105185258505,1491459.2664868091,6595487.020640849,1220974.9146089144,10.297879759644424,77.25782689557894,493907.8227491918,0.17973190778027748,1.3484034522636819,493.9078227491918,31446.438726394936,-890.8040922366606,4472.42233073616,-1.3416124889174252e-06,-9.971591052643077e-06,3.014037242332207e-05,-9.962462786739315e-06,-6.704887253706306e-07,3.0165781641997336e-05,3.177537729092573e-05,31775.377290925728,0.866778678051691,0.11847554411397335,0.28308382463166915,-0.39309263151802737,0.001289026127426593,0.0038404094371012843,-0.005117110982899606,-0.8583550085597028,0.6235069015182215,-0.0211538594487399,-49.18011931438662,35.72431395427316,-1.2120268668257346,-2.248835575861547e-05,-8.419626986064176e-06,2.0810053788257366e-05,3.177537729092573e-05,1.0000000000000002,3.51179286891317e-16,2.220446049250313e-16,-3.4293139610470254e-17,4.271155533155735e-17,-3.4293139610470254e-17,2.220446049250313e-16,9.674369649362096e-17,4.271155533155735e-17,9.674369649362096e-17,0.0
170.0,2026-01-01T12:02:50.000,6749628.021010194,-156941.57215241616,1278186.5325602489,-1426.7018482910576,-912.2332761864486,7429.543824388671,6871380.493837759,7620.0898388805645,1502411.4440747737,6578814.29172277,1295311.6454473194,10.932039178155545,77.13590379642523,494006.7512696029,0.19080007761582923,1.346275492749214,494.0067512696029,31405.851818534295,-839.672431107813,5313.53353924842,-1.6689632456006033e-06,-1.1079565797071094e-05,2.9828241656946877e-05,-1.1113808289534048e-05,-5.785595092805503e-07,2.9856569647401722e-05,3.186324241053387e-05,31863.24241053387,0.8500655634579084,0.1242626349087794,0.30013841663006285,-0.41456515320431236,0.0012594976288011477,0.003858510600272372,-0.005110570642848956,-0.9238130415665113,0.6602376560027301,-0.04761088331771335,-52.93058834090479,37.828831164566715,-2.7279026729947935,-2.323789270320464e-05,-1.0146346713450228e-05,1.9295548916712652e-05,3.186324241053387e-05,1.0,2.2731997230366215e-16,0.0,7.795450920057211e-18,3.348561506798209e-17,7.795450920057211e-18,2.220446049250313e-16,1.7961470942422227e-18,3.348561506798209e-17,1.7961470942422227e-18,0.0
180.0,2026-01-01T12:03:00.000,6734946.674644824,-166054.0774262754,1352401.932337304,-1509.537273987634,-910.249121558079,7413.384181728559,6871395.175183053,7620.073573841561,1513154.9240537789,6561320.984166426,1369489.2376642039,11.56614245801715,77.01364174952805,494111.33335072256,0.2018672676471093,1.3441416174806307,494.1113333507226,31354.80807733621,-788.7320157669685,6151.7493681006745,-1.998505522198118e-06,-1.2175749546251158e-05,2.9484694448339116e-05,-1.2254260695192533e-05,-4.837973134517202e-07,2.9515913366698763e-05,3.196232323997601e-05,31962.32323997601,0.832452348894912,0.12983849417367746,0.31700671188226404,-0.43551325682652986,0.0012298695655345213,0.003876169194466113,-0.0051041524449340556,-0.992378380999463,0.6956424386937005,-0.0781791990228684,-56.85909291129484,39.85737578733715,-4.479338149723649,-2.3747895739737935e-05,-1.1947694859731536e-05,1.774486242183894e-05,3.1962323239976e-05,1.0,3.0209920848727437e-16,0.0,2.1750912748054567e-17,1.2800715248981714e-16,2.1750912748054567e-17,2.220446049250313e-16,6.419602247988128e-17,1.2800715248981714e-16,6.419602247988128e-17,0.0
190.0,2026-01-01T12:03:10.000,6719437.895537701,-175146.1818597739,1426451.1806030397,-1592.1866977592451,-908.1531502567163,7396.313865347169,6871410.683960899,7620.056392151535,1523687.198447943,6543009.549217482,1443498.579073323,12.20018632181747,76.8910190142549,494221.52232544305,0.21293342067249138,1.3420014470123127,494.22152232544306,31293.410879163494,-737.969777738929,6986.656499261642,-2.329968902453546e-06,-1.3259118196802826e-05,2.9110179704709674e-05,-1.3382769466177166e-05,-3.86236665216281e-07,2.9144259050300187e-05,3.207234841631348e-05,32072.34841631348,0.8139583356321877,0.13520065030195486,0.33367056691401115,-0.45591289166691673,0.0012001449516316131,0.0038933853117552337,-0.005097859024289209,-1.0643861237134231,0.7294602331777014,-0.11311857482986122,-60.98483266106866,41.79499268371119,-6.4812169222858325,-2.4011291222667764e-05,-1.3804153074145585e-05,1.6172160791409437e-05,3.207234841631348e-05,1.0000000000000002,4.166232175292107e-16,2.220446049250313e-16,-9.904628050175209e-17,3.802061651408025e-17,-9.904628050175209e-17,2.220446049250313e-16,3.969899074767078e-17,3.802061651408025e-17,3.969899074767078e-17,2.220446049250313e-16
200.0,2026-01-01T12:03:20.000,6703103.594634175,-184216.76857351052,1500325.181104694,-1674.6399383762932,-905.9456220541388,7378.334990915854,6871427.018260334,7620.038295933773,1534005.7888518278,6523882.542097297,1517330.5783399004,12.834167487889285,76.76801348244108,494337.26904640155,0.2239984794160775,1.3398545954839949,494.33726904640156,31221.773759320484,-687.3728926089886,7817.84993715276,-2.663080829645857e-06,-1.432867278716345e-05,2.8705183372776084e-05,-1.4498307826924484e-05,-2.8591620150657154e-07,2.874209001669638e-05,3.219301813198666e-05,32193.018131986657,0.7946037736454709,0.14034684974255504,0.3501120086299613,-0.47574067104759077,0.0011703267627069889,0.003910159069830715,-0.00509169295461188,-1.140150026190895,0.7614034749526299,-0.15267082301733648,-65.32578451246856,43.62520562138059,-8.747393813682125,-2.4023360873203506e-05,-1.5695562101015803e-05,1.4591705833637573e-05,3.219301813198666e-05,1.0,2.9100415059915015e-16,0.0,-5.0107583267326525e-17,3.457236024795743e-17,-5.0107583267326525e-17,2.220446049250313e-16,8.84353477336073e-17,3.457236024795743e-17,8.84353477336073e-17,-1.1102230246251565e-16
210.0,2026-01-01T12:03:30.000,6685945.7845699685,-193264.72335492354,1574014.859309171,-1756.886839205878,-903.6268105407614,7359.449786649732,6871444.1760687,7620.0192874245195,1544108.2468868191,6503942.621641478,1590976.1661068192,13.468082669698113,76.64460265327229,494458.5219107936,0.23506238651702,1.3377006701823833,494.4585219107936,31140.020015295595,-636.9287701433159,8644.93344815504,-2.997567139891319e-06,-1.5383440896733465e-05,2.8270227033980973e-05,-1.5599874432251547e-05,-1.8287850802569455e-07,2.830992533120137e-05,3.232400654480986e-05,32324.006544809858,0.7744098388184811,0.14527505767784893,0.36631325563627926,-0.4949738961834065,0.0011404179363960203,0.003926490609994532,-0.005085656747729569,-1.2199389693865077,0.7911580744086459,-0.197036017769273,-69.89735420938624,45.33001859131256,-11.289332230244035,-2.378178649052616e-05,-1.760132459614777e-05,1.301773416877842e-05,3.232400654480986e-05,0.9999999999999999,1.6910343692400014e-16,0.0,4.44818776635611e-17,-2.2281052301955308e-17,4.44818776635611e-17,0.0,1.0873317551509366e-16,-2.2281052301955308e-17,1.0873317551509366e-16,0.0
220.0,2026-01-01T12:03:40.000,6667966.5794188455,-202288.93479630316,1647511.1635270587,-1838.9172694837405,-901.1970030905544,7339.660593021972,6871462.155271901,7619.999368972715,1553992.1546504227,6483192.549925527,1664426.2961179924,14.101928575165388,76.52076360732563,494585.226886425,0.24612508451770868,1.3355392710880856,494.585226886425,31048.28230002425,-586.625045747571,9467.519968104545,-3.3331525871181935e-06,-1.6422477950114236e-05,2.7805866447240136e-05,-1.668649486629099e-05,-7.716997043573452e-08,2.7848318268924275e-05,3.246496413881269e-05,32464.96413881269,0.7533986091982078,0.14998345858672918,0.3822567393163465,-0.5135905792124734,0.0011104213728092803,0.003942380095189744,-0.005079752853194214,-1.3039460194891144,0.8183857093801183,-0.246341302879648,-74.71060362960964,46.89004716130073,-14.114316974757743,-2.3286671024784468e-05,-1.950061096445071e-05,1.1464336925047282e-05,3.24649641388127e-05,1.0000000000000002,3.6819918428092133e-16,2.220446049250313e-16,-1.2879194421288145e-16,-2.3168459786225445e-17,-1.2879194421288145e-16,2.220446049250313e-16,3.6842511494939816e-17,-2.3168459786225445e-17,3.6842511494939816e-17,0.0
230.0,2026-01-01T12:03:50.000,6649168.194427588,-211288.2944324442,1720805.0660337228,-1920.721125582747,-898.6565008241952,7318.9698624636885,6871480.953654673,7619.978543039684,1563655.1251649118,6461635.191876098,1737671.9463387746,14.735701905922006,76.396472979646,494717.32753896376,0.2571865158507427,1.3333699904057057,494.71732753896373,30946.702206020003,-536.4495738846015,10285.231977527978,-3.6695613576642368e-06,-1.7444868425154363e-05,2.731269004467261e-05,-1.7757222714073376e-05,3.1159391668174804e-08,2.7357854869288936e-05,3.261552011656366e-05,32615.52011656366,0.7315930403344753,0.15447045668841775,0.39792512464204594,-0.5315694653789312,0.0010803399350291939,0.003957827708069526,-0.0050739836579029645,-1.392250729256191,0.8427293137252232,-0.30060293711447783,-79.7700908103908,48.28483294841157,-17.223279605896074,-2.254053618759764e-05,-2.137256588028865e-05,9.945341047057749e-06,3.261552011656366e-05,1.0,1.7462847637428094e-16,0.0,9.909017118133632e-18,-6.878735247730891e-17,9.909017118133632e-18,-1.1102230246251565e-16,6.52279700533233e-17,-6.878735247730891e-17,6.52279700533233e-17,0.0
240.0,2026-01-01T12:04:00.000,6629552.945738285,-220261.69687792158,1793887.564187325,-2002.2883322777432,-896.0056185704645,7297.380159049537,6871500.568900846,7619.956812198824,1573094.8028176452,6439273.514869705,1810704.1200732694,15.369399356487468,76.27170693185552,494854.76506037504,0.26824662282460404,1.331192412077061,494.85476506037503,30835.42984127621,-486.3904240769877,11097.70184439043,-4.00651757245785e-06,-1.8449726963826866e-05,2.6791317385856832e-05,-1.8811140722264272e-05,1.4205607905393494e-07,2.6839152360823287e-05,3.277528481416922e-05,32775.28481416922,0.7090169397336513,0.15873467626314341,0.4133013307055185,-0.5488900543455042,0.0010501764496479449,0.003972833649106676,-0.005068351485744171,-1.4847774835000875,0.8638226494767468,-0.3596843829896234,-85.07148332061024,49.49339206282628,-20.60839710207252,-2.1548296794503942e-05,-2.31965138395984e-05,8.474192917039511e-06,3.277528481416922e-05,1.0,2.071664341490097e-16,0.0,3.585400684351538e-17,6.988456737246942e-17,3.585400684351538e-17,0.0,1.2365113487322275e-16,6.988456737246942e-17,1.2365113487322275e-16,0.0
250.0,2026-01-01T12:04:10.000,6609123.250098013,-229208.03996397118,1866749.6815436285,-2083.6088440066032,-893.2446848258894,7274.894158169031,6871520.998593651,7619.9341791352845,1582308.8637996519,6416110.5883173905,1883513.8470783846,16.003017613369497,76.14644112316455,494997.4782985623,0.2793053476079427,1.3290061112752305,494.99747829856227,30714.623397892403,-436.4358801133896,11904.57213416187,-4.3437457748386395e-06,-1.9436199385268395e-05,2.624239757623029e-05,-1.9847362070342324e-05,2.5546328078531704e-07,2.629285760237205e-05,3.294385228745579e-05,32943.85228745579,0.6856949404543461,0.16277496184649812,0.4283685509586354,-0.5655326206159826,0.0010199337073456426,0.003987398134745179,-0.005062858597267417,-1.5812556411054635,0.8813045173414341,-0.42325619270109494,-90.59927456659626,50.49502930947825,-24.25079349454862,-2.031721230367054e-05,-2.4952161746918198e-05,7.0638454046586486e-06,3.294385228745579e-05,1.0000000000000002,3.721439844601869e-16,2.220446049250313e-16,-4.409333536178116e-17,7.033346105435965e-17,-4.409333536178116e-17,2.220446049250313e-16,1.1423987062942184e-16,7.033346105435965e-17,1.1423987062942184e-16,0.0
260.0,2026-01-01T12:04:20.000,6587881.624555917,-238126.22487495802,1939382.4689674412,-2164.6726461273133,-890.3740417126388,7251.514646183638,6871542.240216018,7619.910646645625,1591295.0165386936,6392149.583236254,1956092.184674504,16.636553354078917,76.02065068023926,495145.4037881252,0.2903626322123831,1.326810653878642,495.1454037881252,30584.4487144548,-386.5744430607714,12705.495887058909,-4.680971402131242e-06,-2.0403463600653785e-05,2.566660765532602e-05,-2.086503114230979e-05,3.7132102574575e-07,2.5719645478755216e-05,3.312080263862233e-05,33120.80263862233,0.6616524738606656,0.1665903783051738,0.4431102731287226,-0.5814782330732503,0.0009896144635072467,0.00400152139559463,-0.005057507189376577,-1.6811902839569586,0.894837420727083,-0.490766502208652,-96.32510782913415,51.27040755803423,-28.118849302953553,-1.8856816087938895e-05,-2.661979600024134e-05,5.726649575253924e-06,3.3120802638622336e-05,1.0000000000000002,3.7928150936103257e-16,2.220446049250313e-16,2.976151670194284e-17,7.638099621008735e-17,2.976151670194284e-17,2.220446049250313e-16,1.2610955807088086e-16,7.638099621008735e-17,1.2610955807088086e-16,0.0
270.0,2026-01-01T12:04:30.000,6565830.686147737,-247015.15628441505,2011777.0057405636,-2245.469756170926,-887.39404493468,7227.244520069695,6871564.291150884,7619.886217637458,1600051.002126768,6367393.771807944,2028430.2188526217,17.270003246054113,75.89431016584396,495298.4757822894,0.30141841847375267,1.3246055959237808,495.2984757822894,30445.078833273677,-336.7948386554445,13500.136862382169,-5.017921239196345e-06,-2.135073042992886e-05,2.5064650960593405e-05,-2.186332459571001e-05,4.895663546567219e-07,2.512021722424991e-05,3.330570448116196e-05,33305.704481161956,0.6369157414992546,0.17018021088889998,0.45751029856565023,-0.5967087738240774,0.0009592214388721108,0.004015203674661153,-0.005052299395046011,-1.7838541347049681,0.9041293549214415,-0.561432694919097,-102.2073131855561,51.802796170884264,-32.1677238995202,-1.7178823372105086e-05,-2.818047285969899e-05,4.474251662599768e-06,3.330570448116196e-05,1.0000000000000002,4.087198321834417e-16,2.220446049250313e-16,3.8888198890705477e-17,-6.648634327999674e-17,3.8888198890705477e-17,2.220446049250313e-16,6.031181384979126e-17,-6.648634327999674e-17,6.031181384979126e-17,2.220446049250313e-16
280.0,2026-01-01T12:04:40.000,6542973.151567834,-255873.74249063473,2083924.4006660937,-2325.9902250901987,-884.3050637321999,7202.086787047194,6871587.148681534,7619.86089512908,1608574.5947456018,6341846.526923259,2100519.0653778086,17.903363945489335,75.76739354613878,495456.6262859418,0.3124726480316315,1.3223904830344237,495.4566262859418,30296.693553657162,-287.0860296047703,14288.169749950348,-5.354323852320589e-06,-2.2277244320789386e-05,2.4437255472583867e-05,-2.2841451891363932e-05,6.101334684395364e-07,2.4495298828819547e-05,3.3498117142131604e-05,33498.1171421316,0.61151168631432,0.17354396504705746,0.4715527613974844,-0.6112069558792421,0.0009287573202249644,0.004028445225630295,-0.005047237283056423,-1.8883098332908137,0.9089560761546024,-0.6342634258887797,-108.1921838606157,52.07934692643056,-36.340617402935756,-1.5297019003626448e-05,-2.9616199584912937e-05,3.317496619028575e-06,3.349811714213161e-05,1.0000000000000004,7.345872600698461e-16,4.440892098500626e-16,7.604800513846083e-17,1.1084519846810819e-16,7.604800513846083e-17,4.440892098500626e-16,1.728355710670655e-16,1.1084519846810819e-16,1.728355710670655e-16,2.220446049250313e-16
290.0,2026-01-01T12:04:50.000,6519311.836828742,-264700.8955517959,2155815.793168947,-2406.2241385037787,-881.107480834299,7176.0445641945225,6871610.809991929,7619.834682249096,1616863.6020837019,6315511.321714497,2172349.8708888576,18.536632096060423,75.63987415659703,495619.78508977103,0.3235252623071122,1.320164849826787,495.619785089771,30139.47898248762,-237.43723328039044,15069.280348728757,-5.68991000191934e-06,-2.318228397068585e-05,2.3785172147299752e-05,-2.37986563473986e-05,7.329538907092342e-07,2.3845639331196104e-05,3.3697593095961143e-05,33697.59309596114,0.5854679630420095,0.176681366182196,0.4852221472152515,-0.624956340032849,0.0008982247611198127,0.00404124631119186,-0.005042322857751354,-1.9934661076663442,0.909180197638686,-0.7081145402226473,-114.21719457165328,52.09218814156676,-40.57197456660447,-1.3227126094906627e-05,-3.091010555358815e-05,2.266338544094301e-06,3.3697593095961143e-05,1.0000000000000004,5.312446622652531e-16,4.440892098500626e-16,2.191324702038677e-17,7.666386939992982e-17,2.191324702038677e-17,2.220446049250313e-16,1.0720722869999164e-16,7.666386939992982e-17,1.0720722869999164e-16,0.0
300.0,2026-01-01T12:05:00.000,6494849.656908318,-273495.53142060956,2227442.354392457,-2486.161617935749,-877.8016924099647,7149.1210780491565,6871635.272167066,7619.807582236012,1624915.8657514455,6288391.729074038,2243913.813993984,19.169804327541485,75.5117246663859,495787.87980550394,0.33457620247865644,1.3179282192878508,495.78787980550396,29973.627083433552,-187.83794521868532,15843.16571286078,-6.024413032734408e-06,-2.4065162853012706e-05,2.3109173241476423e-05,-2.4734215245011828e-05,8.579565932072681e-07,2.3172009155119243e-05,3.390367976470007e-05,33903.67976470007,0.5588129079384065,0.17959235926851433,0.49850331133257403,-0.6379413507558901,0.0008676263826378654,0.004053607201412203,-0.005037558058812157,-2.098162294940955,0.9047633450141289,-0.781773341341683,-120.21584423359977,51.83912112744836,-44.79231299471871,-1.098665726475809e-05,-3.204660050002987e-05,1.329759423939966e-06,3.390367976470007e-05,1.0,3.530604747972582e-16,-1.1102230246251565e-16,9.855350125490218e-18,-4.560798952997336e-17,9.855350125490218e-18,2.220446049250313e-16,-1.5221950553308077e-16,-4.560798952997336e-17,-1.5221950553308077e-16,-1.1102230246251565e-16
310.0,2026-01-01T12:05:10.000,6469589.625384501,-282256.5700784651,2298795.2882909095,-2565.7928220503804,-874.3881080173312,7121.319664194421,6871660.532193344,7619.77959843784,1632729.2616890506,6260491.421160407,2315202.1063624197,19.802877254305702,75.38291704115113,495960.8359021639,0.34562540945592896,1.315680102125829,495.96083590216386,29799.33522621,-138.2779687715472,16609.53426543811,-6.357569240355358e-06,-2.4925229649052683e-05,2.2410050636522967e-05,-2.5647440937255414e-05,9.850681752330041e-07,2.247519843841543e-05,3.411592195421389e-05,34115.92195421389,0.5315755078167821,0.18227710834639163,0.5113814965929359,-0.6501472911614544,0.0008369647741780176,0.004065528172153584,-0.005032944761050853,-2.201266532630495,0.8957687112314993,-0.8540565273260972,-126.1232819031241,51.323766573437894,-48.93383448138483,-8.594749711239105e-06,-3.3011520197869826e-05,5.156960469123742e-07,3.411592195421389e-05,1.0000000000000007,7.242495610739682e-16,4.440892098500626e-16,-1.1939035346132176e-17,1.7329475775017662e-16,-1.1939035346132176e-17,2.220446049250313e-16,1.0113342739084687e-16,1.7329475775017662e-16,1.0113342739084687e-16,4.440892098500626e-16
320.0,2026-01-01T12:05:20.000,6443534.854057761,-290982.9356690612,2369865.8327178815,-2645.1079478819183,-870.8671505512317,7092.643766832343,6871686.586958937,7619.750734311655,1640301.7005725782,6231814.1688906895,2386205.99381179,20.435847473702616,75.25342250404717,496138.57674341823,0.356672823851476,1.3134199960900188,496.13857674341824,29616.805737353,-88.7474511648411,17368.105880479976,-6.689118213131859e-06,-2.576186858763115e-05,2.168861416674952e-05,-2.6537680443073973e-05,1.1142129643069148e-06,2.1756015356104798e-05,3.43338631383596e-05,34333.8631383596,0.5037853684187823,0.18473599589955222,0.523842350683107,-0.6615603570476009,0.0008062424942782793,0.004077009503540605,-0.0050284847742200385,-2.301768127118838,0.8823534494620797,-0.9239023008079352,-131.8815991016414,50.55512869298695,-52.935702518720916,-6.07198639078247e-06,-3.379225607129312e-05,-1.6902332949852415e-07,3.433386313835961e-05,1.0000000000000013,1.5237362195036226e-15,1.1102230246251565e-15,-5.428620356306093e-17,2.0373893701693553e-16,-5.428620356306093e-17,6.661338147750939e-16,4.238598376935039e-16,2.0373893701693553e-16,4.238598376935039e-16,4.440892098500626e-16
330.0,2026-01-01T12:05:30.000,6416688.552561268,-299673.55663150345,2440645.2605102295,-2724.0972320592555,-867.2392561890535,7063.096938342668,6871713.433254186,7619.720993423172,1647631.1282103872,6202363.841421191,2456916.7573911003,21.06871156430419,75.12321149496222,496321.02362591587,0.36771838595011314,1.3111473852591422,496.32102362591587,29426.245454035256,-39.236926131118366,18118.611933744898,-7.01880314871459e-06,-2.657449969485231e-05,2.0945689957388237e-05,-2.7404316640681716e-05,1.2453131615573284e-06,2.1015284504542708e-05,3.45570478805694e-05,34557.0478805694,0.47547268216166244,0.18696962210946252,0.5358719429358212,-0.6721676499954662,0.0007754620714671195,0.004088051478474724,-0.005024179842838844,-2.398846687026244,0.8647526558809923,-0.9904392382972392,-137.4437908655437,49.546677504709685,-56.74798821858382,-3.440204338069009e-06,-3.4377870425205125e-05,-7.187331633533414e-07,3.45570478805694e-05,1.0000000000000002,4.232917250284682e-16,2.220446049250313e-16,-1.6671849071965956e-17,-2.6730771310996243e-17,-1.6671849071965956e-17,2.220446049250313e-16,1.2099482504619408e-16,-2.6730771310996243e-17,1.2099482504619408e-16,2.220446049250313e-16
340.0,2026-01-01T12:05:40.000,6389054.027958851,-308327.365832852,2511124.8805676065,-2802.75095202531,-863.5048743349012,7032.68283882811,6871741.067772003,7619.690379446289,1654715.5259388932,6172144.4056141665,2527325.714459227,21.70146608401145,74.99225362772982,496508.0958186142,0.3787620356758802,1.3088617392945474,496.50809581861415,29227.865282473995,10.262636820678779,18860.79532314959,-7.346371144757676e-06,-2.7362578956649264e-05,2.018211877773271e-05,-2.8246767739195816e-05,1.3782889607612232e-06,2.025384514014172e-05,3.47850227990765e-05,34785.022799076505,0.4466681953041733,0.18897880398249617,0.5474567806076545,-0.6819571895036819,0.0007446260051436901,0.004098654381197786,-0.005020031646033969,-2.49190845398658,0.8432583225382039,-1.0530223493737516,-142.77583734640092,48.31514292072059,-60.33373635206642,-7.222929813490452e-07,-3.4759193333374426e-05,-1.1289742222320584e-06,3.4785022799076496e-05,1.0,3.01156955696573e-16,0.0,-9.951633526232599e-18,-5.720793172069892e-17,-9.951633526232599e-18,-2.220446049250313e-16,1.0564608090420328e-16,-5.720793172069892e-17,1.0564608090420328e-16,-1.1102230246251565e-16
350.0,2026-01-01T12:05:50.000,6360634.684330779,-316943.3007001028,2581296.0389273628,-2881.059427250971,-859.664467562077,7001.40523564589,6871769.4871082865,7619.65889616262,1661552.9110102598,6141159.925492611,2597424.2197587574,22.33410756801244,74.86051764525799,496699.71060311963,0.38980371255640045,1.3065625126570644,496.6997106031196,29021.879762514054,59.75977653976247,19594.41045973407,-7.67157346349167e-06,-2.812559839727415e-05,1.939875441451721e-05,-2.9064487926235865e-05,1.5130586478417678e-06,1.9472549700631462e-05,3.5017338515793596e-05,35017.3385157936,0.417403174572906,0.1907645743462669,0.5585838246209527,-0.6909179241435096,0.0007137367664858943,0.004108818495905571,-0.005016041797394772,-2.5805898886413123,0.8181970784000098,-1.1112363812122406,-147.8569092732823,46.87923940225509,-63.66915468485203,2.058016270492843e-06,-3.492890319049188e-05,-1.396527002715786e-06,3.5017338515793596e-05,0.9999999999999999,2.864692990928309e-16,-2.220446049250313e-16,-6.844824585038326e-17,-6.153708411657966e-17,-6.844824585038326e-17,0.0,-4.177888784550896e-17,-6.153708411657966e-17,-4.177888784550896e-17,-1.1102230246251565e-16
360.0,2026-01-01T12:06:00.000,6331434.022347432,-325520.30335158465,2651150.119834687,-2959.013020443421,-855.7185115538862,6969.268002925635,6871798.687762336,7619.626547461021,1668141.3369757002,6109414.561682144,2667203.666485042,22.966632526582472,74.72797137239594,496895.78331492335,0.40084335568448826,1.3042491437843748,496.89578331492334,28808.506639968233,109.26247792756692,20319.22323027666,-7.994165770169752e-06,-2.8863086077191386e-05,1.859646207039604e-05,-2.9856966969947964e-05,1.6495387270325977e-06,1.8672262091853808e-05,3.5253550548610345e-05,35253.55054861034,0.38770937328886457,0.1923281807122582,0.5692405047614303,-0.6990397417220433,0.0006827967993852635,0.004118544105412305,-0.005012211844841448,-2.664735895295716,0.7899098846200234,-1.1648737492585692,-152.67812031745936,45.25850258439316,-66.74234949809653,4.876366540355102e-06,-3.488158819245374e-05,-1.519434374891561e-06,3.525355054861035e-05,1.0000000000000004,6.561897572982558e-16,4.440892098500626e-16,-1.0976691967713818e-16,1.0245914472452859e-16,-1.0976691967713818e-16,2.220446049250313e-16,2.1174141321324697e-16,1.0245914472452859e-16,2.1174141321324697e-16,2.220446049250313e-16
370.0,2026-01-01T12:06:10.000,6301455.638830924,-334057.32072775654,2720678.54680787,-3036.602138748715,-851.6674950427762,6936.275121073711,6871828.666137307,7619.5933373370935,1674478.894064289,6076912.570840145,2736655.4873503344,23.59903744271629,74.59458166638358,497096.22738560534,0.411880903676822,1.3019210542261916,497.09622738560535,28587.966448282285,158.7781034606594,21035.01093282124,-8.31390834562461e-06,-2.9574606014159046e-05,1.777611679208883e-05,-3.062373053072962e-05,1.7876439801568755e-06,1.7853856133990165e-05,3.5493220781886656e-05,35493.22078188666,0.3576189970308519,0.19367108400242533,0.5794147343255354,-0.706313478443136,0.0006518085214076113,0.004127831489867119,-0.00500854327050527,-2.744363157274319,0.7587356197449702,-1.21389756314945,-157.24042636301584,43.47234877762968,-69.55120712967882,7.707996581007936e-06,-3.4613790035311804e-05,-1.497013550462976e-06,3.5493220781886656e-05,1.0,2.640495067883385e-16,2.220446049250313e-16,-7.091353191399335e-17,1.3370866459452813e-17,-7.091353191399335e-17,0.0,-7.072240558007285e-17,1.3370866459452813e-17,-7.072240558007285e-17,0.0
380.0,2026-01-01T12:06:20.000,6270703.226304732,-342553.3047213878,2789872.78369853,-3113.817234948414,-847.5119197478201,6902.430676264056,6871859.418540655,7619.559269892681,1680563.7095537554,6043658.3050731225,2805771.15564287,24.231318769581282,74.46031436474846,497300.9543859297,0.4229162946294946,1.2995776477348906,497.3009543859297,28360.482101063957,208.31331892713337,21741.56218654476,-8.630566273408863e-06,-3.025975803158584e-05,1.6938601932425778e-05,-3.1364339890853865e-05,1.9272875900996804e-06,1.7018214122324054e-05,3.5735918431701584e-05,35735.91843170158,0.32716466886809686,0.1947949571377647,0.5890949242136689,-0.7127309270572005,0.0006207743247784246,0.00413668092552342,-0.00500503749061993,-2.819618380109566,0.7249992381224039,-1.2583995417143052,-161.55223301779202,41.53939649461392,-72.10098268142667,1.0527963684140299e-05,-3.4124028581489776e-05,-1.3298572074931992e-06,3.573591843170159e-05,1.0000000000000009,1.308162684145952e-15,8.881784197001252e-16,-1.1713000002578347e-16,1.4173572018524181e-16,-1.1713000002578347e-16,6.661338147750939e-16,4.253079676204404e-16,1.4173572018524181e-16,4.253079676204404e-16,2.220446049250313e-16
390.0,2026-01-01T12:06:30.000,6239180.572531368,-351007.212307105,2858724.335746694,-3190.6488086501586,-843.2523003105484,6867.738859915581,6871890.94118459,7619.524349335349,1686393.9481392715,6009656.211340737,2874542.186280761,24.8634729277805,74.32513423041493,497509.8740698066,0.43394946607024404,1.2972183093074823,497.5098740698066,28126.27849695622,257.8740138786822,22438.67681753899,-8.943909602283088e-06,-3.0918177538482326e-05,1.6084807650152764e-05,-3.2078391807269206e-05,2.068381177833561e-06,1.6166225140685663e-05,3.598122089280503e-05,35981.22089280503,0.296379394189613,0.19570168348690564,0.5982699964666969,-0.7182848439915237,0.0005896965773919609,0.004145092683562144,-0.005001695855422958,-2.8907385122980025,0.6890042578423791,-1.2985598831025962,-165.62711643060197,39.47703604091187,-74.4020007467803,1.3311366974133456e-05,-3.341280780329309e-05,-1.0198239637187451e-06,3.598122089280504e-05,1.0,3.323514912787367e-16,2.220446049250313e-16,6.221738799088953e-17,1.641342895138574e-17,6.221738799088953e-17,2.220446049250313e-16,-4.224389048058655e-17,1.641342895138574e-17,-4.224389048058655e-17,0.0
400.0,2026-01-01T12:06:40.000,6206891.560038208,-359418.0056702887,2927224.7506305706,-3267.087407472,-838.8891642291441,6832.203968156228,6871923.230186565,7619.488579977851,1691967.812294094,5974910.830848285,2942960.1368605597,25.495496302412615,74.18900489388969,497722.8944191321,0.44498035490714005,1.2948424041765614,497.7228944191321,27885.582138272708,307.465217410219,23126.16572222773,-9.253713484995887e-06,-3.1549535245559794e-05,1.5215629450962516e-05,-3.2765518278039635e-05,2.2108349062659246e-06,1.5298783837056963e-05,3.62287146598428e-05,36228.7146598428,0.2652965250089529,0.19639335518789017,0.6069293970434486,-0.7229689556687017,0.0005585776238397792,0.004153067028961195,-0.004998519649068795,-2.958016895679774,0.6510288268947919,-1.3346130373085052,-169.48188385084057,37.301204122424636,-76.46769432091322,1.6033568392233007e-05,-3.24826034930486e-05,-5.700182710072883e-07,3.6228714659842805e-05,1.0000000000000002,3.412396063644888e-16,2.220446049250313e-16,-9.61515015569067e-17,5.419709238819657e-17,-9.61515015569067e-17,0.0,-1.2338929974157932e-16,5.419709238819657e-17,-1.2338929974157932e-16,-1.1102230246251565e-16
410.0,2026-01-01T12:06:50.000,6173840.165631478,-367784.6523353041,2995365.619510915,-3343.1236282203254,-834.4230517910072,6795.830401273755,6871956.281569748,7619.451966237589,1697283.542625639,5939426.798426641,3011016.6087003835,26.127385239916155,74.05188879228284,497939.92168943066,0.4560088973735055,1.2924492767460227,497.93992168943066,27638.620764718922,357.09100998932695,23803.850710268507,-9.559758294574728e-06,-3.215353682217832e-05,1.4331966772786296e-05,-3.3425386203080915e-05,2.354557500872656e-06,1.4416788732937407e-05,3.64779958498295e-05,36477.9958498295,0.2339497239148304,0.196872271339956,0.6150631077515817,-0.7267779639894069,0.0005274197864573167,0.004160604219410551,-0.004995510089553538,-3.021776773652447,0.6113244566072799,-1.3668208046957517,-173.13505576094389,35.02631127672557,-78.31306345974154,1.867040997925547e-05,-3.1337832410228015e-05,1.5239919918906568e-08,3.64779958498295e-05,1.0000000000000002,2.365035273461385e-16,2.220446049250313e-16,-2.135505757965732e-17,-3.2800480478012605e-17,-2.135505757965732e-17,0.0,-4.222731262592084e-17,-3.2800480478012605e-17,-4.222731262592084e-17,0.0
420.0,2026-01-01T12:07:00.000,6140030.459898522,-376106.12529304967,3063138.578069817,-3418.7481180612604,-829.8545160036991,6758.622663153318,6871990.091263534,7619.414512636046,1702339.418225889,5903208.841900099,3078703.2478774283,26.75913604468303,73.91374710495198,498160.86045630695,0.4670350289688113,1.2900382494678388,498.160860456307,27385.62300341973,406.75443215776875,24471.56432890149,-9.861829719533796e-06,-3.2729922498969416e-05,1.343472161793653e-05,-3.405769688912847e-05,2.4994563315056173e-06,1.35211411045927e-05,3.6728670764338324e-05,36728.67076433833,0.2023729280598574,0.1971409360007686,0.6226616580688198,-0.7297075502639457,0.0004962253663992765,0.004167704504302993,-0.0049926683286413585,-3.0823519634613965,0.5701165692108944,-1.3954525636520372,-176.60575848020056,32.665273246262345,-79.95354240797259,2.119842474081442e-05,-2.998480414427668e-05,7.304553734189831e-07,3.672867076433834e-05,1.0000000000000004,6.736459848124746e-16,4.440892098500626e-16,-1.802969472478943e-17,4.0567523235916544e-17,-1.802969472478943e-17,2.220446049250313e-16,2.775198062565606e-16,4.0567523235916544e-17,2.775198062565606e-16,2.220446049250313e-16
430.0,2026-01-01T12:07:10.000,6105466.606850476,-384381.40313231165,3130535.307580508,-3493.9515753588876,-825.1841225448295,6720.585360869339,6872024.65525615,7619.376223798388,1707133.7570528402,5866261.781589808,3146011.746296863,27.390744975116966,73.7745396855854,498385.6138147056,0.47805868438988336,1.2876086216566873,498.38561381470555,27126.818034541215,456.45739090940157,25129.149668510832,-1.0159718838643097e-05,-3.327846661824387e-05,1.2524797233863451e-05,-3.466218593556925e-05,2.6454374485343524e-06,1.2612743566503114e-05,3.6980356588335494e-05,36980.3565883355,0.17060031257261837,0.1972020560758835,0.6297161359457603,-0.7317543785718743,0.00046499664472711774,0.004174368123762472,-0.0049899954518034745,-3.1400736767399327,0.5276061630252453,-1.4207716027707296,-179.91296903732493,30.229606386437823,-81.40421649080031,2.359504030236972e-05,-2.8431655997892796e-05,1.5690072490221282e-06,3.69803565883355e-05,1.0000000000000004,6.519895368804741e-16,2.220446049250313e-16,-9.073415012719538e-18,1.002893778806822e-17,-9.073415012719538e-18,4.440892098500626e-16,2.538717233539763e-16,1.002893778806822e-17,2.538717233539763e-16,2.220446049250313e-16
440.0,2026-01-01T12:07:20.000,6070152.862806237,-392609.4701483947,3197547.5357920793,-3568.724752119575,-820.412449609394,6681.7232034421595,6872059.969000195,7619.337104452221,1711664.9161233755,5828590.5290809255,3212933.842573708,28.022208240942373,73.63422499016255,498614.08283225045,0.4890797974839329,1.2851596682326256,498.61408283225046,26862.435284215837,506.20056539085306,25776.460165053857,-1.0453222182670326e-05,-3.379897715351262e-05,1.1603096846435243e-05,-3.523862241185683e-05,2.792405617790391e-06,1.1692498714790386e-05,3.7232681407804366e-05,37232.68140780437,0.13866625388041165,0.1970585390501112,0.6362181980589164,-0.7329160979818047,0.0004337358835160552,0.004180595307732542,-0.00498749247816262,3.0879231040723005,0.4839720812960844,-1.4430262674830636,176.92496132427928,27.729557660428004,-82.67931485329576,2.5838772420782086e-05,-2.6688271345812826e-05,2.5232077152620173e-06,3.723268140780436e-05,0.9999999999999999,2.98707891440687e-16,-2.220446049250313e-16,2.4776309444894806e-17,-4.2193540042414147e-17,2.4776309444894806e-17,-1.1102230246251565e-16,-7.239604230353831e-17,-4.2193540042414147e-17,-7.239604230353831e-17,-1.1102230246251565e-16
450.0,2026-01-01T12:07:30.000,6034093.5767329885,-400789.3164940517,3264167.0381587124,-3643.0584532417042,-815.540087953894,6642.0410021973885,6872096.028286268,7619.29715942796,1715931.2920606667,5790200.087400914,3279461.3232629173,28.65352199727556,73.4927600012297,498846.16747053084,0.5000983011450802,1.28269063839945,498.8461674705308,26592.704119039878,555.9833114095518,26413.35936837508,-1.0742141771202349e-05,-3.4291295162601704e-05,1.0670522441146588e-05,-3.578680864826419e-05,2.940264349772294e-06,1.0761308097284787e-05,3.7485284841370825e-05,37485.28484137083,0.10660529280265856,0.19671349056337556,0.6421600793697472,-0.7331913438118813,0.0004024453269783089,0.0041863862751184205,-0.004985160360444124,3.0349630884053895,0.4393735320037485,-1.462444675138468,173.8905759436186,25.174249013570993,-83.79190765681497,2.7909407699122922e-05,-2.4766183407039427e-05,3.584368978178626e-06,3.748528484137084e-05,1.0000000000000004,8.635001330069293e-16,4.440892098500626e-16,-1.2936464712583326e-17,1.6980868234213e-16,-1.2936464712583326e-17,4.440892098500626e-16,3.492087764361778e-16,1.6980868234213e-16,3.492087764361778e-16,2.220446049250313e-16
460.0,2026-01-01T12:07:40.000,5997293.18913249,-408919.93828758533,3330385.6387200905,-3716.943538908035,-810.5676407439287,6601.543669524615,6872132.828673868,7619.256393657579,1719931.3212809523,5751095.549787863,3345586.02373696,29.28468234128951,73.35010014727462,499081.7660651872,0.5111141272561437,1.2802007542375198,499.08176606518725,26317.853577795,605.8035679337806,27039.720722063998,-1.1026285144647222e-05,-3.475529423213545e-05,9.727973600859526e-06,-3.6306579543698724e-05,3.088915956215315e-06,9.820070852831957e-06,3.7737818054335414e-05,37737.81805433542,0.07445209746380789,0.19617021182830982,0.6475346019781218,-0.7325797379231227,0.0003711272026015635,0.004191741232983099,-0.004982999984933079,2.983944636158971,0.3939526346839375,-1.479231941128544,170.96743395260904,22.57182329544875,-84.75374714760983,2.9788173410425623e-05,-2.2678464351788143e-05,4.74287792560708e-06,3.773781805433542e-05,1.0000000000000007,4.1635157770751397e-16,2.220446049250313e-16,-1.6404701725273316e-17,1.676708220931449e-17,-1.6404701725273316e-17,2.220446049250313e-16,1.1031028501816622e-16,1.676708220931449e-17,1.1031028501816622e-16,2.220446049250313e-16
470.0,2026-01-01T12:07:50.000,5959756.231625054,-417000.3377407736,3396195.2111432715,-3790.370925414516,-805.4957234960316,6560.236218403722,6872170.365631375,7619.214812174156,1723663.4803496513,5711282.099134079,3411299.8292266293,29.915685307143395,73.20619921753033,499320.77551533334,0.5221272066001433,1.2776892092168008,499.32077551533337,26038.11211495721,655.6577652403001,27655.42732510143,-1.1305465380253673e-05,-3.51908798789303e-05,8.776346394300588e-06,-3.6797801844382186e-05,3.2382615457499834e-06,8.869682709044043e-06,3.798994379801337e-05,37989.94379801337,0.04224142607695895,0.19543219688761257,0.6523351832647503,-0.7310818880382763,0.00033978372230164316,0.004196660375798053,-0.0049810121714370355,2.9345988903993443,0.3478368639353568,-1.4935690850830285,168.14013098365686,19.92958426256222,-85.5752049864733,3.145789307540196e-05,-2.043960179604157e-05,5.988277836911658e-06,3.798994379801339e-05,1.0000000000000007,8.463884307968761e-16,4.440892098500626e-16,-6.296128645677403e-18,1.086059445992638e-16,-6.296128645677403e-18,4.440892098500626e-16,3.5282384537013416e-16,1.086059445992638e-16,3.5282384537013416e-16,2.220446049250313e-16
480.0,2026-01-01T12:08:00.000,5921487.326382757,-425029.5232819879,3461587.6797254053,-3863.3315862992276,-800.3249639991092,6518.123761765046,6872208.634536617,7619.172420111228,1727126.2862947383,5670765.007283703,3476594.6758223106,30.546526860847283,73.06100927163214,499563.0913342482,0.5331374687706728,1.275155166620085,499.5630913342482,25753.70736658277,705.5407364890598,28260.371690091066,-1.1579501099531385e-05,-3.55979889281754e-05,7.816532317593204e-06,-3.7260373844390495e-05,3.388201077945933e-06,7.91103490165666e-06,3.8241336780813024e-05,38241.33678081302,0.010008089647839453,0.1945031297100395,0.656555843320299,-0.7286993860821973,0.0003084170835884091,0.0042011438847491004,-0.004979197673253654,2.8866743010620164,0.301141323462457,-1.505612997725696,165.39425427973032,17.254126871382738,-86.2652703497224,3.290312722896641e-05,-1.8065363741124844e-05,7.309356349150477e-06,3.824133678081306e-05,1.0000000000000013,1.8699712171270495e-15,1.3322676295501878e-15,-2.851047079626682e-16,1.8800643542688032e-16,-2.851047079626682e-16,6.661338147750939e-16,6.510159760387874e-16,1.8800643542688032e-16,6.510159760387874e-16,4.440892098500626e-16
490.0,2026-01-01T12:08:10.000,5882491.185551412,-433006.5096785173,3526555.020389982,-3935.8165534637315,-795.0560022343327,6475.211511836954,6872247.6306774495,7619.129222702144,1730318.2969173202,5629549.63431795,3541462.551468756,31.1772028947598,72.91448054373322,499808.60770071717,0.5441448420758657,1.27259775786949,499.8086077007172,25464.86593704321,755.4456338287937,28854.455498199473,-1.1848216468461173e-05,-3.597658887010698e-05,6.849417287814242e-06,-3.769422452825997e-05,3.538633368512796e-06,6.9450132074049645e-06,3.849168348298964e-05,38491.68348298964,-0.022213085354012268,0.1933868811245823,0.6601912116618287,-0.725434805542475,0.00027702947074388607,0.004205191927097952,-0.004977557177142753,2.8399351291490573,0.25397082622777123,-1.5154970246310024,162.71629699118137,14.551456462301726,-86.8315833759902,3.411029732153946e-05,-1.5572653119813887e-05,8.694238828142858e-06,3.849168348298965e-05,1.000000000000001,1.2810641607773226e-15,6.661338147750939e-16,-2.3367014911734223e-17,7.117410766258126e-17,-2.3367014911734223e-17,6.661338147750939e-16,5.221197646969108e-16,7.117410766258126e-17,5.221197646969108e-16,4.440892098500626e-16
500.0,2026-01-01T12:08:20.000,5842772.610661353,-440930.3181580846,3591089.2616765006,-4007.8169182866786,-789.689490293497,6431.504779480925,6872287.349252339,7619.085225279405,1733238.1110936308,5587641.4278296875,3605895.496953252,31.807709221693692,72.76656134072441,500057.2175109191,0.5551492534355179,1.2700160807500602,500.0572175109191,25171.81320660975,805.3638502199574,29437.589352938456,-1.2111441192662634e-05,-3.632667719918515e-05,5.875880687591149e-06,-3.809931300890217e-05,3.689456151375352e-06,5.972496889430166e-06,3.87406822027888e-05,38740.6822027888,-0.05438729431380292,0.19208750559284402,0.6632365332396145,-0.7212916978509046,0.0002456230560116233,0.004208804655600003,-0.004976091303302195,2.7941595342592107,0.2064217820566054,-1.5233318591010643,160.09354859929252,11.827096911412797,-87.28048632430837,3.506779271007355e-05,-1.2979353542960907e-05,1.0130486345068454e-05,3.874068220278881e-05,1.0000000000000002,7.817514249970058e-16,6.661338147750939e-16,-2.1107202540714033e-17,1.6456221424397716e-16,-2.1107202540714033e-17,2.220446049250313e-16,1.775454195547805e-16,1.6456221424397716e-16,1.775454195547805e-16,0.0
