t_s,t_utc,x_eci_m,y_eci_m,z_eci_m,vx_eci_mps,vy_eci_mps,vz_eci_mps,r_norm_m,v_norm_mps,x_ecef_m,y_ecef_m,z_ecef_m,lat_deg,lon_deg,alt_m,lat_rad,lon_rad,alt_km,B_N_nT,B_E_nT,B_D_nT,Bx_ecef_T,By_ecef_T,Bz_ecef_T,Bx_eci_T,By_eci_T,Bz_eci_T,B_norm_T,B_norm_nT,q_eci_from_body_w,q_eci_from_body_x,q_eci_from_body_y,q_eci_from_body_z,omega_body_x_radps,omega_body_y_radps,omega_body_z_radps,yaw_eci_from_body_rad,pitch_eci_from_body_rad,roll_eci_from_body_rad,yaw_eci_from_body_deg,pitch_eci_from_body_deg,roll_eci_from_body_deg,Bx_body_T,By_body_T,Bz_body_T,B_body_norm_T,det_R_eci_from_body,RT_R_minus_I_fro,RT_R_minus_I_11,RT_R_minus_I_12,RT_R_minus_I_13,RT_R_minus_I_21,RT_R_minus_I_22,RT_R_minus_I_23,RT_R_minus_I_31,RT_R_minus_I_32,RT_R_minus_I_33
0.0,2026-01-01T12:00:00.000,6871258.863000001,0.0,0.0,0.0,-928.6717675671225,7563.424592946154,6871258.863000001,7620.22459151034,1289995.3972881434,6749059.6362788705,17443.144292174,0.1463587376479352,79.17916738986841,493122.0014389291,0.0025544418610190505,1.3819371699409284,493.1220014389291,30634.186002248964,-1746.662962665585,-9018.10982793216,3.3939550385911377e-06,8.452952847750707e-06,3.065712226781741e-05,9.017623552720775e-06,-1.7456712258888874e-06,3.0634385673099785e-05,3.198172115655601e-05,31981.721156556014,0.6626200482157375,0.7489557207890022,0.0,0.0,0.0017453292519943296,-0.0008726646259971648,0.003490658503988659,0.0,-0.0,1.6929693744344998,0.0,-0.0,97.00000000000001,9.017623552720775e-06,3.0618785413831585e-05,-2.000733210313729e-06,3.198172115655601e-05,1.0,3.140444046004356e-16,0.0,0.0,0.0,0.0,2.220446049250313e-16,2.8526223212703072e-18,0.0,2.8526223212703072e-18,2.220446049250313e-16
10.0,2026-01-01T12:00:10.000,6870836.748083066,-9286.52750779967,75632.69713643612,-84.42211640495762,-928.614717441409,7562.9599569585835,6871259.285114918,7620.224123852661,1303923.3489508838,6745763.504049046,93074.22188026519,0.78097253519762,79.05992368228284,493126.2266654772,0.013630542106845773,1.3798559746312749,493.1262266654772,30765.341494447912,-1690.4647881242922,-8191.489389442118,3.134615039694547e-06,7.309337262681586e-06,3.08741345501461e-05,7.847451540367748e-06,-1.6999711462656481e-06,3.085436774998839e-05,3.1882038937748e-05,31882.038937748002,0.6559605768037967,0.7545806257936856,-0.015986013868669432,0.008261247885824566,0.0017407170871740804,-0.0008895605833669995,0.0034886107607616356,-0.013295193921128786,-0.03344618035121997,1.7106244265308153,-0.7617584994886674,-1.9163249749582856,98.01155997220248,8.89672601674245e-06,3.0497926199516326e-05,-2.6812628628975866e-06,3.188203893774801e-05,1.0000000000000004,5.772045695643855e-16,-1.1102230246251565e-16,1.0511408198155866e-17,-3.012996270255441e-19,1.0511408198155866e-17,4.440892098500626e-16,1.924824272924883e-16,-3.012996270255441e-19,1.924824272924883e-16,2.220446049250313e-16
20.0,2026-01-01T12:00:20.000,6869570.455350527,-18571.91403666011,151256.10174512412,-168.83382926581297,-928.4435741367497,7561.56610659661,6871260.55140765,7620.222720937426,1317686.3653497016,6741621.955298073,168693.8639827627,1.4155823634145037,78.9406568867156,493136.49950183457,0.02470657307474601,1.3777743763603236,493.1364995018346,30886.039190907362,-1634.7053645589162,-7360.497960091716,2.8694833454048676e-06,6.159182687058015e-06,3.105844720377351e-05,6.66961872608812e-06,-1.6515303524218372e-06,3.104166944923033e-05,3.1793027673558166e-05,31793.027673558165,0.6490551635905225,0.7598894584305846,-0.03201336249265017,0.016448410393320703,0.0017360194060057252,-0.0009064014486997177,0.0034865293880640123,-0.02736546533967808,-0.06660405658295589,1.7287142459284364,-1.5679256683750917,-3.8161313406538997,99.04803027584006,8.763400904800055e-06,3.03771923742156e-05,-3.3504621611476957e-06,3.1793027673558166e-05,1.0000000000000002,2.25425463350696e-16,0.0,-4.2875775680492e-18,1.6561313121824837e-18,-4.2875775680492e-18,0.0,-2.711623836294665e-17,1.6561313121824837e-18,-2.711623836294665e-17,2.220446049250313e-16
30.0,2026-01-01T12:00:30.000,6867460.140850647,-27855.018749088675,226860.9224503059,-253.22473634349979,-928.1583588696806,7559.243214655052,6871262.661722146,7620.220382938038,1331281.5304858256,6736635.7398004215,244292.77968827548,2.0501849675118824,78.82134822345235,493152.8152933358,0.035782477957975324,1.3756920473602265,493.15281529333583,30996.177635929762,-1579.3672065240391,-6525.597187611452,2.5987247757929965e-06,5.003656958029428e-06,3.120978843331306e-05,5.485294464835574e-06,-1.600305429784533e-06,3.119601600760844e-05,3.1714994049842035e-05,31714.994049842036,0.6419057711071177,0.7648808484342052,-0.04807489207304575,0.024557554237184497,0.0017312366492907329,-0.0009231862886640451,0.0034844148277573513,-0.042237049160487226,-0.09945015867520882,1.7472864921952385,-2.420004655982495,-5.698074363995816,100.11214160300543,8.617898652592676e-06,3.0257445755338005e-05,-4.00744890896136e-06,3.171499404984204e-05,1.0000000000000004,8.036940578774652e-16,0.0,4.1875061283421594e-17,-1.747491425299932e-17,4.1875061283421594e-17,6.661338147750939e-16,2.069862802451334e-17,-1.747491425299932e-17,2.069862802451334e-17,4.440892098500626e-16
40.0,2026-01-01T12:00:40.000,6864506.064642123,-37134.70109046778,302437.8701800558,-337.58443800884845,-927.7591069980688,7555.991569100626,6871265.615798345,7620.217110143473,1344705.9501287255,6730805.715201611,319861.6806532738,2.684777092543185,78.70197887250983,493175.1666841464,0.04685819994699908,1.373608659160311,493.1751666841464,31095.66973662622,-1524.4330351436324,-5687.251544713815,2.3225142919128665e-06,3.84393595273675e-06,3.1327934600543603e-05,4.295657879250913e-06,-1.5462579612498595e-06,3.1317180788153625e-05,3.1648213264198624e-05,31648.213264198625,0.6345144626399958,0.7695535603883886,-0.06416342441478855,0.03258480261716925,0.001726369264064432,-0.0009399141791721412,0.0034822675279754353,-0.057939179573850697,-0.13195938422513348,1.7663900042833611,-3.3196704580322325,-7.560715783245361,101.206692219532,8.460538915393431e-06,3.0139566527477597e-05,-4.651366854276594e-06,3.1648213264198624e-05,1.0,2.2400434771314775e-16,0.0,-8.699720545339913e-18,1.4566518044591747e-17,-8.699720545339913e-18,0.0,-1.2214828018820184e-17,1.4566518044591747e-17,-1.2214828018820184e-17,2.220446049250313e-16
50.0,2026-01-01T12:00:50.000,6860708.590761453,-46409.82093044698,377977.65931782674,-421.90253854709624,-927.2458680165734,7551.811573034988,6871269.413272207,7620.212902958255,1357956.7523281996,6724132.846880281,395391.2822535442,3.3193554833244794,78.58252995548807,493203.5436209917,0.057933682228139896,1.37152388227034,493.2035436209917,31184.442671850877,-1469.8858019490817,-4845.927423288038,2.0410366026036935e-06,2.6812010744503303e-06,3.1412710357460385e-05,3.1018953108243164e-06,-1.4893545863605333e-06,3.140498543153152e-05,3.159292708119864e-05,31592.92708119864,0.6268834016095152,0.7739064938990587,-0.08027176029461774,0.04052633694960547,0.001721417703465294,-0.0009565842054815135,0.0034800879429933342,-0.07450404145700475,-0.1641048358715582,1.7860749360050503,-4.268767132154089,-9.402514493127361,102.33455572718798,8.291711932071293e-06,3.0024448143954288e-05,-5.281388874574629e-06,3.159292708119864e-05,1.0000000000000002,2.498700069891561e-16,0.0,1.7391462198167513e-17,-1.3748230570951318e-17,1.7391462198167513e-17,2.220446049250313e-16,-7.793670577463177e-17,-1.3748230570951318e-17,-7.793670577463177e-17,0.0
60.0,2026-01-01T12:01:00.000,6856068.187177278,-55679.23870428066,453471.0088535534,-506.16864746187406,-926.618705550293,7546.703744642979,6871274.053675757,7620.20776190239,1371031.087925391,6716618.207795735,470872.304735168,3.9539168843476173,78.46298251728768,493237.9333582755,0.06900886798206177,1.3694373858614186,493.2379333582755,31262.43776973859,-1415.7087094105764,-4002.0922527870125,1.7544857484211633e-06,1.5166367727151685e-06,3.146398864598594e-05,1.9051980955505974e-06,-1.4295670445527133e-06,3.145929985349343e-05,3.154934213244664e-05,31549.34213244664,0.6190148509035783,0.7779386837076163,-0.0963926828386391,0.04837839856021934,0.0017163824266031849,-0.000973195462292967,0.003477876533095322,-0.09196670741963733,-0.19585765066622057,1.8063928552268262,-5.2693041908596925,-11.221816768522075,103.49868674708347,8.111879767121415e-06,2.9912991962647627e-05,-5.896720060891301e-06,3.154934213244665e-05,1.0000000000000004,6.35940597014703e-16,0.0,6.793524992818974e-17,1.1791024591083648e-17,6.793524992818974e-17,4.440892098500626e-16,1.5516723776052922e-17,1.1791024591083648e-17,1.5516723776052922e-17,4.440892098500626e-16
70.0,2026-01-01T12:01:10.000,6850585.425731677,-64941.81555409311,528908.6435341636,-590.3723807784903,-925.8776973465974,7540.66871712611,6871279.536437145,7620.201687611308,1383926.1310588024,6708262.978321657,546295.4743648755,4.588458039681121,78.34331750768729,493278.3204645493,0.08008370038204018,1.3673488374444611,493.27832046454927,31329.610356148012,-1361.8852281287,-3156.213644119258,1.463064664498228e-06,3.514281042859342e-07,3.148169056904332e-05,7.067596269382739e-07,-1.3668721974895664e-06,3.1480042124467004e-05,3.151762841542423e-05,31517.628415424228,0.6109111721666055,0.7816492997449898,-0.11251896090766046,0.056137290337633955,0.0017112638984266588,-0.000989747053844548,0.0034756337644417153,-0.11036505072511738,-0.22718682179364216,1.8273967999644622,-6.323451612296472,-13.016846049766448,104.70212413367604,7.921576391316331e-06,2.9806101863623763e-05,-6.496600657619436e-06,3.151762841542424e-05,1.0000000000000004,6.699908040352417e-16,-1.1102230246251565e-16,6.199643314886972e-17,-9.83067294788217e-17,6.199643314886972e-17,4.440892098500626e-16,-8.693598699386913e-17,-9.83067294788217e-17,-8.693598699386913e-17,4.440892098500626e-16
80.0,2026-01-01T12:01:20.000,6844260.982068442,-74196.41347005284,604281.2950133514,-674.5033623463439,-925.0229352651489,7533.707238621297,6871285.86088072,7620.194680835785,1396639.0796692611,6699068.446065297,621651.5245796276,5.222975692855835,78.22351576270928,493324.68683036487,0.09115812259196639,1.3652579025449605,493.32468683036484,31385.92957616554,-1308.3991106834483,-2308.758560123918,1.1669847241442407e-06,-8.13241658918992e-07,3.146578513782261e-05,-4.922265843436845e-07,-1.3012520358521756e-06,3.14671782293168e-05,3.149791817861513e-05,31497.91817861513,0.6025748250431066,0.7850376471273854,-0.12864335248773182,0.0637993783487403,0.001706062589589375,-0.0010062380940015665,0.003473360108934696,-0.12973962274379588,-0.25805901357051836,1.849141282549236,-7.4335328188390095,-14.785692342899939,105.94799121347928,7.72140826688076e-06,2.970467858413738e-05,-7.08030890399341e-06,3.149791817861512e-05,0.9999999999999998,3.5390479093763324e-16,0.0,-3.9796734224282673e-17,5.0437550808270024e-17,-3.9796734224282673e-17,-2.220446049250313e-16,9.587892031899769e-17,5.0437550808270024e-17,9.587892031899769e-17,-2.220446049250313e-16
90.0,2026-01-01T12:01:30.000,6837095.635548328,-83441.89543143801,679579.7030004624,-758.5512251402837,-924.054525266111,7525.820172104817,6871293.026227115,7620.18674244184,1409167.1559997178,6689036.005672914,696931.1971352783,5.857466586732327,78.10355798576926,493377.0116774599,0.10223207776403312,1.363164244373984,493.37701167745985,31431.3781906812,-1255.234402169605,-1460.1925135123706,8.664652649936152e-07,-1.9761933691178695e-06,3.141628890017011e-05,-1.6905694888533432e-06,-1.2326936722037834e-06,3.1420721689844076e-05,3.149030502228854e-05,31490.30502228854,0.5940083663777459,0.7881031660927821,-0.14475860808626667,0.07136109341021063,0.0017007789763156856,-0.0010226677063425213,0.003471056044083184,-0.15013348175635538,-0.2884383713206555,1.8716822308091192,-8.602014868243506,-16.526301326300842,107.23949241499335,7.51205380890658e-06,2.960961406976945e-05,-7.647163696964683e-06,3.1490305022288547e-05,1.0000000000000004,5.015722566507728e-16,0.0,3.149039380732745e-17,-2.972448345551488e-17,3.149039380732745e-17,2.220446049250313e-16,2.5547173253679318e-17,-2.972448345551488e-17,2.5547173253679318e-17,4.440892098500626e-16
100.0,2026-01-01T12:01:40.000,6829090.26915129,-92677.12554757505,754794.6164083466,-842.5056125607477,-922.9725873965489,7517.008495281559,6871301.031593334,7620.177873410631,1421507.6070926748,6678167.158620915,772125.2432541704,6.491927463347076,77.98342472854519,493435.27156929247,0.11330550903604997,1.3610675234942788,493.43527156929247,31465.952349882504,-1202.375447488311,-610.9787929889518,5.617330995310312e-07,-3.13625428397035e-06,3.133326545507905e-05,-2.887082899692162e-06,-1.1611893090574647e-06,3.134073309696211e-05,3.149484337691141e-05,31494.843376911413,0.5852144493712305,0.7908454318792272,-0.16085747413033635,0.0788189326196094,0.0016954135402654825,-0.0010390350242410144,0.0034687220528668316,-0.17159195780961317,-0.31828632857995987,1.8950768528049367,-9.831494980877721,-18.236463304345854,108.57990551865761,7.294262529601052e-06,2.9521785799346227e-05,-8.196527112317664e-06,3.149484337691142e-05,1.0000000000000004,6.45496803937321e-16,0.0,1.0152849681152968e-16,-1.6345143139236963e-17,1.0152849681152968e-16,4.440892098500626e-16,2.32945545641931e-17,-1.6345143139236963e-17,2.32945545641931e-17,4.440892098500626e-16
110.0,2026-01-01T12:01:50.000,6820245.869365744,-101900.96919863202,829916.7945000287,-926.3561797325009,-921.777255775022,7507.273300459531,6871309.875992882,7620.168074838327,1433657.7052842018,6666463.512993014,847224.4247715162,7.126355063734166,77.8630963715347,493499.44042296614,0.12437835952833154,1.3589673974809304,493.49944042296613,31489.66134535724,-1149.8068955073948,238.42228187315095,2.530220118358042e-07,-4.292260285067501e-06,3.1216824858295485e-05,-4.080587429042694e-06,-1.0867362024599604e-06,3.122731950646071e-05,3.151154824660921e-05,31511.548246609207,0.5761958226922279,0.7932641545453218,-0.17693269636522968,0.08616946084577794,0.0016899667683983764,-0.0010553391909436647,0.003466358623599194,-0.19416233605321495,-0.3475614151412465,1.9193834091174764,-11.124682396249998,-19.913802209187732,109.97256860986322,7.068854108304322e-06,2.9442050940010613e-05,-8.727806765717814e-06,3.1511548246609214e-05,1.0000000000000007,9.820970011629213e-16,0.0,1.3154428353643246e-16,-3.517115224289103e-17,1.3154428353643246e-16,6.661338147750939e-16,1.4135802834850387e-16,-3.517115224289103e-17,1.4135802834850387e-16,6.661338147750939e-16
120.0,2026-01-01T12:02:00.000,6810563.526064829,-111112.29317624916,904937.0080340516,-1010.0925948018049,-920.4686785743716,7496.615794409684,6871319.558335873,7620.157347935975,1445614.7486935032,6653926.783243476,922219.515280418,7.760746127719527,77.74255310426622,493569.48952241783,0.1354505723401061,1.356863520575984,493.5694895224178,31502.527342342346,-1097.513700251001,1087.5540765327953,-5.942775758679588e-08,-5.443058029184285e-06,3.106712292406894e-05,-5.269913037985961e-06,-1.0093366028701184e-06,3.1080633765760555e-05,3.154039535400853e-05,31540.39535400853,0.5669553295457754,0.7953591787331652,-0.19297702325168714,0.09340931217744829,0.0016844391528372772,-0.0010715793596440064,0.0034639662497901492,-0.2178934386384954,-0.3762190707490467,1.9446608741123812,-12.484374417578564,-21.5557649262541,111.42086067086093,6.836716381847845e-06,2.937124077462995e-05,-9.240457973501715e-06,3.154039535400853e-05,1.0,2.5403307182979605e-16,0.0,6.192232744933176e-17,5.874101079249643e-17,6.192232744933176e-17,2.220446049250313e-16,1.815534405672572e-17,5.874101079249643e-17,1.815534405672572e-17,0.0
130.0,2026-01-01T12:02:10.000,6800044.432369709,-120309.96582398788,979846.040408342,-1093.7045402318372,-919.047018002705,7485.03729821104,6871330.07742917,7620.145694029336,1457376.0617106229,6640558.789946109,997101.3012753789,8.39509739368433,77.62177490509946,493645.3875330123,0.14652209054538617,1.3547555433358947,493.6453875330123,31504.585093502952,-1045.4811193299747,1935.9643277771838,-3.753700369938422e-07,-6.587507028237049e-06,3.0884360428076285e-05,-6.453900984789259e-06,-9.289976826136559e-07,3.090087371027134e-05,3.1581321547299185e-05,31581.321547299183,0.5574959066986612,0.7971304833740582,-0.20898320936024556,0.10053519132905507,0.0016788311907314406,-0.001087754693552362,0.003461545430007627,-0.24283508302973789,-0.4042114708248637,1.9709684651923556,-13.913425375312901,-23.1596113090401,112.92817460889948,6.598803387664083e-06,2.931015499712873e-05,-9.733985749380697e-06,3.1581321547299185e-05,1.0000000000000002,3.957431979068226e-16,-1.1102230246251565e-16,8.014539509135053e-17,-1.7454657397492842e-17,8.014539509135053e-17,2.220446049250313e-16,1.2693150722808877e-16,-1.7454657397492842e-17,1.2693150722808877e-16,2.220446049250313e-16
140.0,2026-01-01T12:02:20.000,6788689.8844999485,-129492.8571775811,1054634.6888024579,-1177.1817140961957,-917.5124502825823,7472.539247081174,6871341.431976539,7620.133114558726,1468938.9954795346,6626361.459529451,1071860.5832941611,9.029405598294261,77.50074152059305,493727.10051741166,0.15759285718824334,1.3526431122714255,493.72710051741166,31495.88163549677,-993.694709876504,2783.2058000873935,-6.945532566846137e-07,-7.72448165421653e-06,3.066878221655697e-05,-7.631405763654863e-06,-8.457314553467621e-07,3.068828127271166e-05,3.163422550177533e-05,31634.22550177533,0.5478205834622775,0.7985781813373224,-0.22494401876116113,0.10754387500273009,0.0016731433841190545,-0.0011038643659616741,0.0034590966677387155,-0.2690373927422283,-0.431487372458159,1.998365017052316,-15.414707135333249,-24.722405355041907,114.49788140368649,6.356132902851277e-06,2.9259556110609614e-05,-1.0207946601964184e-05,3.1634225501775336e-05,1.0000000000000004,8.613613250146957e-16,0.0,1.3866483679725612e-16,-4.698839421191661e-17,1.3866483679725612e-16,4.440892098500626e-16,1.704730982145743e-16,-4.698839421191661e-17,1.704730982145743e-16,6.661338147750939e-16
150.0,2026-01-01T12:02:30.000,6776501.281610938,-138659.8391049661,1129293.7653180636,-1260.5138313703058,-915.8651656284028,7459.123190192049,6871353.6205788115,7620.119611078831,1480300.928376552,6611336.823998278,1146488.1770578404,9.663667476191312,77.37943244439433,493814.59195276076,0.16866281527742913,1.350525869479205,493.81459195276074,31476.47596945378,-942.1403223002864,3628.8369117904185,-1.0167209884098854e-06,-8.852873065676857e-06,3.0420676226698484e-05,-8.80129734713585e-06,-7.595546745055956e-07,3.0443141543335903e-05,3.169896883691721e-05,31698.968836917207,0.5379324806334503,0.7997025190226272,-0.24085222840842135,0.11443221320548198,0.0016673762397894278,-0.001119907560309287,0.0034566204712502074,-0.2965499354760258,-0.4579919910327099,2.026908176773133,-16.991059717653165,-26.24100813696772,116.13328398965713,6.109783234635637e-06,2.9220164162098626e-05,-1.0661950126014507e-05,3.1698968836917214e-05,1.0000000000000004,5.794777506251333e-16,2.220446049250313e-16,1.0657734409524511e-16,-3.3625146348735017e-17,1.0657734409524511e-16,2.220446049250313e-16,8.658193382266441e-17,-3.3625146348735017e-17,8.658193382266441e-17,4.440892098500626e-16
160.0,2026-01-01T12:02:40.000,6763480.125618428,-147809.78544608224,1203814.0981174922,-1343.690625220567,-914.1053682220004,7444.7907904712565,6871366.641734052,7620.105185258505,1491459.2664868091,6595487.020640849,1220974.9146089144,10.297879759644424,77.25782689557894,493907.8227491918,0.17973190778027748,1.3484034522636819,493.9078227491918,31446.438726394936,-890.8040922366606,4472.42233073616,-1.3416124889174252e-06,-9.971591052643077e-06,3.014037242332207e-05,-9.962462786739315e-06,-6.704887253706306e-07,3.0165781641997336e-05,3.177537729092573e-05,31775.377290925728,0.5278348093937533,0.8005038758962504,-0.2567006315163981,0.12119713052058312,0.0016615302691448562,-0.0011358834702346614,0.0034541173534486497,-0.32542066389378393,-0.4836669202337992,2.056653395754216,-18.645230607459116,-27.712073219487333,117.8375594979656,5.860890055921783e-06,2.9192651308289197e-05,-1.109566038258728e-05,3.1775377290925735e-05,1.0000000000000002,7.134462720231958e-16,-1.1102230246251565e-16,4.460992433481544e-18,2.4649414003790332e-17,4.460992433481544e-18,2.220446049250313e-16,-3.454401198573717e-17,2.4649414003790332e-17,-3.454401198573717e-17,6.661338147750939e-16
170.0,2026-01-01T12:02:50.000,6749628.021010194,-156941.57215241616,1278186.5325602489,-1426.7018482910576,-912.2332761864486,7429.543824388671,6871380.493837759,7620.0898388805645,1502411.4440747737,6578814.29172277,1295311.6454473194,10.932039178155545,77.13590379642523,494006.7512696029,0.19080007761582923,1.346275492749214,494.0067512696029,31405.851818534295,-839.672431107813,5313.53353924842,-1.6689632456006033e-06,-1.1079565797071094e-05,2.9828241656946877e-05,-1.1113808289534048e-05,-5.785595092805503e-07,2.9856569647401722e-05,3.186324241053387e-05,31863.24241053387,0.5175308701678014,0.8009827639717291,-0.2724820409277455,0.1278356273322049,0.0016556059880622265,-0.0011517912996330134,0.0034515878317399663,-0.3556946365818983,-0.5084501107122551,2.0876526966779108,-20.379801471582393,-29.132045436771666,119.6136886087493,5.610642411886002e-06,2.917763696001727e-05,-1.1508797073014424e-05,3.186324241053388e-05,1.0000000000000007,1.022605445556056e-15,0.0,2.1326850508340085e-16,-1.8328103239347585e-16,2.1326850508340085e-16,6.661338147750939e-16,7.162217387355344e-18,-1.8328103239347585e-16,7.162217387355344e-18,6.661338147750939e-16
180.0,2026-01-01T12:03:00.000,6734946.674644824,-166054.0774262754,1352401.932337304,-1509.537273987634,-910.249121558079,7413.384181728559,6871395.175183053,7620.073573841561,1513154.9240537789,6561320.984166426,1369489.2376642039,11.56614245801715,77.01364174952805,494111.33335072256,0.2018672676471093,1.3441416174806307,494.1113333507226,31354.80807733621,-788.7320157669685,6151.7493681006745,-1.998505522198118e-06,-1.2175749546251158e-05,2.9484694448339116e-05,-1.2254260695192533e-05,-4.837973134517202e-07,2.9515913366698763e-05,3.196232323997601e-05,31962.32323997601,0.5070240514405904,0.8011398272355799,-0.2881892924702884,0.13434478100465766,0.0016496039167544405,-0.0011676302627049245,0.003449032427888711,-0.3874125018642272,-0.5322759252155688,2.119953198748645,-22.197101287424356,-30.497164051273124,121.46437105355594,5.360278754786435e-06,2.9175682826872882e-05,-1.1901136506796752e-05,3.196232323997601e-05,1.0000000000000002,3.021240297282473e-16,2.220446049250313e-16,1.0582102238920457e-16,3.3655252628072633e-17,1.0582102238920457e-16,0.0,9.304190761428362e-17,3.3655252628072633e-17,9.304190761428362e-17,0.0
190.0,2026-01-01T12:03:10.000,6719437.895537701,-175146.1818597739,1426451.1806030397,-1592.1866977592451,-908.1531502567163,7396.313865347169,6871410.683960899,7620.056392151535,1523687.198447943,6543009.549217482,1443498.579073323,12.20018632181747,76.8910190142549,494221.52232544305,0.21293342067249138,1.3420014470123127,494.22152232544306,31293.410879163494,-737.969777738929,6986.656499261642,-2.329968902453546e-06,-1.3259118196802826e-05,2.9110179704709674e-05,-1.3382769466177166e-05,-3.86236665216281e-07,2.9144259050300187e-05,3.207234841631348e-05,32072.34841631348,0.4963178285310197,0.8009758410204574,-0.30381524829221385,0.14072174703635895,0.0016435245796317791,-0.0011833995840025099,0.0034464516678769904,-0.42060873601563437,-0.5550752903115357,2.1535953932904843,-24.099105400028034,-31.80347144684991,123.3919268143614,5.11108212807682e-06,2.9187288567985977e-05,-1.2272512312748973e-05,3.207234841631349e-05,1.0000000000000009,1.1220377233170948e-15,0.0,1.0836404973802374e-16,-2.985576347397834e-17,1.0836404973802374e-16,8.881784197001252e-16,2.3507662179600878e-17,-2.985576347397834e-17,2.3507662179600878e-17,6.661338147750939e-16
200.0,2026-01-01T12:03:20.000,6703103.594634175,-184216.76857351052,1500325.181104694,-1674.6399383762932,-905.9456220541388,7378.334990915854,6871427.018260334,7620.038295933773,1534005.7888518278,6523882.542097297,1517330.5783399004,12.834167487889285,76.76801348244108,494337.26904640155,0.2239984794160775,1.3398545954839949,494.33726904640156,31221.773759320484,-687.3728926089886,7817.84993715276,-2.663080829645857e-06,-1.432867278716345e-05,2.8705183372776084e-05,-1.4498307826924484e-05,-2.8591620150657154e-07,2.874209001669638e-05,3.219301813198666e-05,32193.018131986657,0.48541576233099565,0.8004917113216965,-0.3193528001928364,0.14696376014131737,0.0016373685051631463,-0.0011990984984708733,0.003443846081763171,-0.45530964116147304,-0.5767759664502207,2.1886111753350894,-26.087320810168393,-33.04682860217681,125.39818334186724,4.8643756289244734e-06,2.9212887287518267e-05,-1.262281595025057e-05,3.219301813198664e-05,0.9999999999999993,1.2128520737507818e-15,-1.1102230246251565e-16,-4.661526597634382e-16,1.5225753675413476e-16,-4.661526597634382e-16,-6.661338147750939e-16,-2.1243159296338926e-16,1.5225753675413476e-16,-2.1243159296338926e-16,-6.661338147750939e-16
210.0,2026-01-01T12:03:30.000,6685945.7845699685,-193264.72335492354,1574014.859309171,-1756.886839205878,-903.6268105407614,7359.449786649732,6871444.1760687,7620.0192874245195,1544108.2468868191,6503942.621641478,1590976.1661068192,13.468082669698113,76.64460265327229,494458.5219107936,0.23506238651702,1.3377006701823833,494.4585219107936,31140.020015295595,-636.9287701433159,8644.93344815504,-2.997567139891319e-06,-1.5383440896733465e-05,2.8270227033980973e-05,-1.5599874432251547e-05,-1.8287850802569455e-07,2.830992533120137e-05,3.232400654480986e-05,32324.006544809858,0.4743214980021381,0.7996884740618896,-0.33479487293337834,0.1530681352963359,0.0016311362257373384,-0.001214726251485938,0.0034412162035403755,-0.49153112712828134,-0.5973029588816028,2.2250216559203224,-28.162659083758847,-34.22293863459199,127.48435020944412,4.621517108855867e-06,2.925284177457853e-05,-1.2951997021036427e-05,3.232400654480986e-05,1.0000000000000002,5.173210851857131e-16,-1.1102230246251565e-16,5.82355360156418e-17,2.786723882454765e-17,5.82355360156418e-17,2.220446049250313e-16,-1.4835756512769997e-17,2.786723882454765e-17,-1.4835756512769997e-17,4.440892098500626e-16
220.0,2026-01-01T12:03:40.000,6667966.5794188455,-202288.93479630316,1647511.1635270587,-1838.9172694837405,-901.1970030905544,7339.660593021972,6871462.155271901,7619.999368972715,1553992.1546504227,6483192.549925527,1664426.2961179924,14.101928575165388,76.52076360732563,494585.226886425,0.24612508451770868,1.3355392710880856,494.585226886425,31048.28230002425,-586.625045747571,9467.519968104545,-3.3331525871181935e-06,-1.6422477950114236e-05,2.7805866447240136e-05,-1.668649486629099e-05,-7.716997043573452e-08,2.7848318268924275e-05,3.246496413881269e-05,32464.96413881269,0.4630387636344892,0.7985672943028332,-0.3501344275297579,0.15903226873846943,0.0016248282775244184,-0.0012302820988882546,0.0034385625709948725,-0.5292763265599892,-0.6165790909360032,2.262834804721165,-30.325299708075303,-35.32737964664597,129.65088404583256,4.3838935982625e-06,2.930744095856013e-05,-1.3260063269608489e-05,3.2464964138812705e-05,1.0000000000000009,1.19585004668709e-15,0.0,2.275528970714957e-16,-2.1463421349632396e-16,2.275528970714957e-16,6.661338147750939e-16,-2.9713941307505025e-17,-2.1463421349632396e-16,-2.9713941307505025e-17,8.881784197001252e-16
230.0,2026-01-01T12:03:50.000,6649168.194427588,-211288.2944324442,1720805.0660337228,-1920.721125582747,-898.6565008241952,7318.9698624636885,6871480.953654673,7619.978543039684,1563655.1251649118,6461635.191876098,1737671.9463387746,14.735701905922006,76.396472979646,494717.32753896376,0.2571865158507427,1.3333699904057057,494.71732753896373,30946.702206020003,-536.4495738846015,10285.231977527978,-3.6695613576642368e-06,-1.7444868425154363e-05,2.731269004467261e-05,-1.7757222714073376e-05,3.1159391668174804e-08,2.7357854869288936e-05,3.261552011656366e-05,32615.52011656366,0.45157136886728316,0.7971294654052075,-0.36536446452620047,0.16485363891530885,0.0016184452003372362,-0.0012457653070128542,0.0034358857255643955,-0.5685331230138523,-0.6345257580325718,2.302043003023725,-32.57454846208579,-36.35564792760566,131.89734833088124,4.152915799023187e-06,2.937689660008653e-05,-1.3547080459937408e-05,3.2615520116563674e-05,1.0000000000000009,1.3713875891849503e-15,2.220446049250313e-16,3.121790412365602e-16,-1.6127875519068657e-16,3.121790412365602e-16,8.881784197001252e-16,5.807375235725078e-17,-1.6127875519068657e-16,5.807375235725078e-17,8.881784197001252e-16
240.0,2026-01-01T12:04:00.000,6629552.945738285,-220261.69687792158,1793887.564187325,-2002.2883322777432,-896.0056185704645,7297.380159049537,6871500.568900846,7619.956812198824,1573094.8028176452,6439273.514869705,1810704.1200732694,15.369399356487468,76.27170693185552,494854.76506037504,0.26824662282460404,1.331192412077061,494.85476506037503,30835.42984127621,-486.3904240769877,11097.70184439043,-4.00651757245785e-06,-1.8449726963826866e-05,2.6791317385856832e-05,-1.8811140722264272e-05,1.4205607905393494e-07,2.6839152360823287e-05,3.277528481416922e-05,32775.28481416922,0.4399232034719245,0.7953764081367928,-0.3804780272471867,0.17052980739009468,0.0016119875374931624,-0.0012611751527152237,0.00343318621219646,-0.6092717060837936,-0.6510638747680364,2.3426206213522205,-34.908697335336534,-37.303212217642454,134.22227460379673,3.930012168537505e-06,2.9461340422367597e-05,-1.381317195731772e-05,3.2775284814169235e-05,1.0000000000000007,1.3004429138385401e-15,2.220446049250313e-16,3.8679251331458597e-16,-2.3393719780289037e-16,3.8679251331458597e-16,6.661338147750939e-16,-1.706867634825592e-17,-2.3393719780289037e-16,-1.706867634825592e-17,8.881784197001252e-16
250.0,2026-01-01T12:04:10.000,6609123.250098013,-229208.03996397118,1866749.6815436285,-2083.6088440066032,-893.2446848258894,7274.894158169031,6871520.998593651,7619.9341791352845,1582308.8637996519,6416110.5883173905,1883513.8470783846,16.003017613369497,76.14644112316455,494997.4782985623,0.2793053476079427,1.3290061112752305,494.99747829856227,30714.623397892403,-436.4358801133896,11904.57213416187,-4.3437457748386395e-06,-1.9436199385268395e-05,2.624239757623029e-05,-1.9847362070342324e-05,2.5546328078531704e-07,2.629285760237205e-05,3.294385228745579e-05,32943.85228745579,0.428098235897875,0.7933096697298516,-0.3954682050262162,0.17605841970091615,0.0016054558356760956,-0.001276510923393433,0.003430464579206723,-0.6514423028156066,-0.6661150181028349,2.3845217712396365,-37.3248945476176,-38.16557920757287,136.62303364909073,3.7166227137815207e-06,2.9560821836079474e-05,-1.4058518112399956e-05,3.2943852287455806e-05,1.0000000000000009,1.140878321320081e-15,2.220446049250313e-16,2.850872930984762e-16,-2.255263810036908e-16,2.850872930984762e-16,4.440892098500626e-16,3.1221623323196713e-17,-2.255263810036908e-16,3.1221623323196713e-17,8.881784197001252e-16
260.0,2026-01-01T12:04:20.000,6587881.624555917,-238126.22487495802,1939382.4689674412,-2164.6726461273133,-890.3740417126388,7251.514646183638,6871542.240216018,7619.910646645625,1591295.0165386936,6392149.583236254,1956092.184674504,16.636553354078917,76.02065068023926,495145.4037881252,0.2903626322123831,1.326810653878642,495.1454037881252,30584.4487144548,-386.5744430607714,12705.495887058909,-4.680971402131242e-06,-2.0403463600653785e-05,2.566660765532602e-05,-2.086503114230979e-05,3.7132102574575e-07,2.5719645478755216e-05,3.312080263862233e-05,33120.80263862233,0.41610051178217017,0.7909309228883539,-0.41032813640991106,0.18143720617327141,0.0015988506447988074,-0.0012917719170064221,0.0034277213781374553,-0.6949732660512685,-0.67960275683636,2.427678411978391,-39.81903501916018,-38.93836971217898,139.09572702138374,3.514192908760142e-06,2.9675305780916937e-05,-1.428335543335915e-05,3.312080263862234e-05,1.0000000000000004,9.017588725197254e-16,0.0,2.570991136607163e-16,-1.4130715068868232e-16,2.570991136607163e-16,4.440892098500626e-16,-6.490320262296029e-18,-1.4130715068868232e-16,-6.490320262296029e-18,6.661338147750939e-16
270.0,2026-01-01T12:04:30.000,6565830.686147737,-247015.15628441505,2011777.0057405636,-2245.469756170926,-887.39404493468,7227.244520069695,6871564.291150884,7619.886217637458,1600051.002126768,6367393.771807944,2028430.2188526217,17.270003246054113,75.89431016584396,495298.4757822894,0.30141841847375267,1.3246055959237808,495.2984757822894,30445.078833273677,-336.7948386554445,13500.136862382169,-5.017921239196345e-06,-2.135073042992886e-05,2.5064650960593405e-05,-2.186332459571001e-05,4.895663546567219e-07,2.512021722424991e-05,3.330570448116196e-05,33305.704481161956,0.40393415242329267,0.7882419647457679,-0.42505101233602116,0.1866639826852824,0.0015921725178656898,-0.0013069574420884705,0.003424957163616171,-0.7397697216314515,-0.6914541415664486,2.4719990144552804,-42.38568286104993,-39.61740403859885,141.63511048878655,3.3241672003343585e-06,2.9804671262253818e-05,-1.4487975509355839e-05,3.330570448116196e-05,1.0,1.8297940033723375e-16,0.0,5.73828380697251e-17,1.1518281728013985e-16,5.73828380697251e-17,0.0,1.3448381774788285e-17,1.1518281728013985e-16,1.3448381774788285e-17,0.0
280.0,2026-01-01T12:04:40.000,6542973.151567834,-255873.74249063473,2083924.4006660937,-2325.9902250901987,-884.3050637321999,7202.086787047194,6871587.148681534,7619.86089512908,1608574.5947456018,6341846.526923259,2100519.0653778086,17.903363945489335,75.76739354613878,495456.6262859418,0.3124726480316315,1.3223904830344237,495.4566262859418,30296.693553657162,-287.0860296047703,14288.169749950348,-5.354323852320589e-06,-2.2277244320789386e-05,2.4437255472583867e-05,-2.2841451891363932e-05,6.101334684395364e-07,2.4495298828819547e-05,3.3498117142131604e-05,33498.1171421316,0.39160335322012624,0.7852447157741715,-0.43963007928394493,0.19173665138487728,0.0015854220108359625,-0.0013220668177598637,0.003422172493214482,-0.78571298050777,-0.7016013111528588,2.517367988276338,-45.01803769173994,-40.19879402990367,144.23456120957266,3.147982781044774e-06,2.9948710038556615e-05,-1.4672723792966164e-05,3.349811714213161e-05,1.0000000000000002,3.800217968632707e-16,2.220446049250313e-16,8.347921088645047e-17,4.6563918309556174e-17,8.347921088645047e-17,2.220446049250313e-16,1.173349876665855e-16,4.6563918309556174e-17,1.173349876665855e-16,0.0
290.0,2026-01-01T12:04:50.000,6519311.836828742,-264700.8955517959,2155815.793168947,-2406.2241385037787,-881.107480834299,7176.0445641945225,6871610.809991929,7619.834682249096,1616863.6020837019,6315511.321714497,2172349.8708888576,18.536632096060423,75.63987415659703,495619.78508977103,0.3235252623071122,1.320164849826787,495.619785089771,30139.47898248762,-237.43723328039044,15069.280348728757,-5.68991000191934e-06,-2.318228397068585e-05,2.3785172147299752e-05,-2.37986563473986e-05,7.329538907092342e-07,2.3845639331196104e-05,3.3697593095961143e-05,33697.59309596114,0.3791123820767128,0.7819412186454758,-0.45405864239643196,0.19665320135827458,0.0015785996824874084,-0.0013370993737337748,0.0034193679273072275,-0.8326609021208708,-0.7099831531023182,2.5636460586730863,-47.70795545708164,-40.67903819815339,146.88609932731566,2.987062889026216e-06,3.0107126198725367e-05,-1.4837998106617825e-05,3.369759309596113e-05,0.999999999999999,1.3415256705063883e-15,-3.3306690738754696e-16,-3.2281135008010263e-16,1.6466143509752405e-16,-3.2281135008010263e-16,-8.881784197001252e-16,-1.2900370566815449e-16,1.6466143509752405e-16,-1.2900370566815449e-16,-7.771561172376096e-16
300.0,2026-01-01T12:05:00.000,6494849.656908318,-273495.53142060956,2227442.354392457,-2486.161617935749,-877.8016924099647,7149.1210780491565,6871635.272167066,7619.807582236012,1624915.8657514455,6288391.729074038,2243913.813993984,19.169804327541485,75.5117246663859,495787.87980550394,0.33457620247865644,1.3179282192878508,495.78787980550396,29973.627083433552,-187.83794521868532,15843.16571286078,-6.024413032734408e-06,-2.4065162853012706e-05,2.3109173241476423e-05,-2.4734215245011828e-05,8.579565932072681e-07,2.3172009155119243e-05,3.390367976470007e-05,33903.67976470007,0.3664655777735085,0.7783336370455668,-0.46833006857119025,0.20141170924912172,0.0015717060942806946,-0.0013520544503193787,0.003416544028931944,-0.8804493474818379,-0.7165469387084614,2.61067173174639,-50.44603168575659,-41.05511541101412,149.58047192317798,2.8428106271082722e-06,3.0279535517854835e-05,-1.4984246999722778e-05,3.390367976470007e-05,1.0000000000000002,3.7096746614718244e-16,0.0,6.102363686194612e-17,6.550904478100583e-17,6.102363686194612e-17,2.220446049250313e-16,1.0718817420564044e-16,6.550904478100583e-17,1.0718817420564044e-16,2.220446049250313e-16
310.0,2026-01-01T12:05:10.000,6469589.625384501,-282256.5700784651,2298795.2882909095,-2565.7928220503804,-874.3881080173312,7121.319664194421,6871660.532193344,7619.77959843784,1632729.2616890506,6260491.421160407,2315202.1063624197,19.802877254305702,75.38291704115113,495960.8359021639,0.34562540945592896,1.315680102125829,495.96083590216386,29799.33522621,-138.2779687715472,16609.53426543811,-6.357569240355358e-06,-2.4925229649052683e-05,2.2410050636522967e-05,-2.5647440937255414e-05,9.850681752330041e-07,2.247519843841543e-05,3.411592195421389e-05,34115.92195421389,0.35366734830581653,0.7744242544421933,-0.48243778952117455,0.2060103398276605,0.001564741810224346,-0.001366931398421216,0.0034137013636487247,-0.9288947840505645,-0.7212498420703265,2.6582639102453816,-53.22175073781336,-41.32457192510687,152.30730288900344,2.7166021964651243e-06,3.046546616815202e-05,-1.5111967921133206e-05,3.4115921954213895e-05,1.0000000000000002,3.584711988279417e-16,-1.1102230246251565e-16,-6.606720290277704e-17,1.3800501769524915e-17,-6.606720290277704e-17,2.220446049250313e-16,-6.502836802297188e-17,1.3800501769524915e-17,-6.502836802297188e-17,2.220446049250313e-16
320.0,2026-01-01T12:05:20.000,6443534.854057761,-290982.9356690612,2369865.8327178815,-2645.1079478819183,-870.8671505512317,7092.643766832343,6871686.586958937,7619.750734311655,1640301.7005725782,6231814.1688906895,2386205.99381179,20.435847473702616,75.25342250404717,496138.57674341823,0.356672823851476,1.3134199960900188,496.13857674341824,29616.805737353,-88.7474511648411,17368.105880479976,-6.689118213131859e-06,-2.576186858763115e-05,2.168861416674952e-05,-2.6537680443073973e-05,1.1142129643069148e-06,2.1756015356104798e-05,3.43338631383596e-05,34333.8631383596,0.34072216919003384,0.7702154728074236,-0.496375304802391,0.21044734650930727,0.0015577073967404332,-0.0013817295795348233,0.003410840499400531,-0.9777980052388828,-0.7240602480471128,2.706225622799663,-56.023698916498745,-41.48559632629507,155.05530659658336,2.6097809388238247e-06,3.066435866212662e-05,-1.5221705203275387e-05,3.433386313835961e-05,1.0000000000000007,8.939497885831462e-16,2.220446049250313e-16,1.8817193419058602e-16,-1.3649984039449216e-16,1.8817193419058602e-16,4.440892098500626e-16,2.0139090718923785e-17,-1.3649984039449216e-16,2.0139090718923785e-17,6.661338147750939e-16
330.0,2026-01-01T12:05:30.000,6416688.552561268,-299673.55663150345,2440645.2605102295,-2724.0972320592555,-867.2392561890535,7063.096938342668,6871713.433254186,7619.720993423172,1647631.1282103872,6202363.841421191,2456916.7573911003,21.06871156430419,75.12321149496222,496321.02362591587,0.36771838595011314,1.3111473852591422,496.32102362591587,29426.245454035256,-39.236926131118366,18118.611933744898,-7.01880314871459e-06,-2.657449969485231e-05,2.0945689957388237e-05,-2.7404316640681716e-05,1.2453131615573284e-06,2.1015284504542708e-05,3.45570478805694e-05,34557.0478805694,0.32763458173779747,0.7657098112948455,-0.5101361848064285,0.21472107182913397,0.0015506034225310065,-0.0013964483657388158,0.0034079620063739834,-1.026948816710008,-0.7249587598344472,2.754348718863681,-58.83983297343741,-41.53707725955209,157.8125568981542,2.523650681178041e-06,3.0875567720304116e-05,-1.531404791060385e-05,3.45570478805694e-05,1.0000000000000002,6.108294790595763e-16,2.220446049250313e-16,1.3225059086637578e-16,4.4162394875907224e-17,1.3225059086637578e-16,4.440892098500626e-16,1.385798347865804e-16,4.4162394875907224e-17,1.385798347865804e-16,2.220446049250313e-16
340.0,2026-01-01T12:05:40.000,6389054.027958851,-308327.365832852,2511124.8805676065,-2802.75095202531,-863.5048743349012,7032.68283882811,6871741.067772003,7619.690379446289,1654715.5259388932,6172144.4056141665,2527325.714459227,21.70146608401145,74.99225362772982,496508.0958186142,0.3787620356758802,1.3088617392945474,496.50809581861415,29227.865282473995,10.262636820678779,18860.79532314959,-7.346371144757676e-06,-2.7362578956649264e-05,2.018211877773271e-05,-2.8246767739195816e-05,1.3782889607612232e-06,2.025384514014172e-05,3.47850227990765e-05,34785.022799076505,0.3144091912969089,0.760909904868752,-0.5237140737044955,0.21882994791502614,0.0015434304584451925,-0.001411087139684511,0.003405066456860505,-1.076131435782074,-0.7239388328842807,2.8024192758047115,-61.65778947166642,-41.4786397498959,160.56679692971858,2.4594698677278304e-06,3.109836307520859e-05,-1.5389627453077442e-05,3.478502279907652e-05,1.000000000000001,1.147012329525682e-15,2.220446049250313e-16,3.9293148356613204e-16,-6.447487115632232e-17,3.9293148356613204e-16,6.661338147750939e-16,1.757279709633165e-16,-6.447487115632232e-17,1.757279709633165e-16,6.661338147750939e-16
350.0,2026-01-01T12:05:50.000,6360634.684330779,-316943.3007001028,2581296.0389273628,-2881.059427250971,-859.664467562077,7001.40523564589,6871769.4871082865,7619.65889616262,1661552.9110102598,6141159.925492611,2597424.2197587574,22.33410756801244,74.86051764525799,496699.71060311963,0.38980371255640045,1.3065625126570644,496.6997106031196,29021.879762514054,59.75977653976247,19594.41045973407,-7.67157346349167e-06,-2.812559839727415e-05,1.939875441451721e-05,-2.9064487926235865e-05,1.5130586478417678e-06,1.9472549700631462e-05,3.5017338515793596e-05,35017.3385157936,0.30105066546894965,0.755818502896645,-0.5371026923715324,0.2227724968370826,0.001536189077347399,-0.0014256452945802147,0.0034021544251183274,-1.1251302669982766,-0.7210069868606881,2.850223381096154,-64.4652157014287,-41.310657346561825,163.30577040631724,2.418445488072177e-06,3.1331931914208076e-05,-1.5449115206843872e-05,3.5017338515793596e-05,1.0000000000000004,5.797524958000394e-16,2.220446049250313e-16,1.415366650716457e-16,-5.896046400933821e-18,1.415366650716457e-16,2.220446049250313e-16,-8.81291901032021e-18,-5.896046400933821e-18,-8.81291901032021e-18,4.440892098500626e-16
360.0,2026-01-01T12:06:00.000,6331434.022347432,-325520.30335158465,2651150.119834687,-2959.013020443421,-855.7185115538862,6969.268002925635,6871798.687762336,7619.626547461021,1668141.3369757002,6109414.561682144,2667203.666485042,22.966632526582472,74.72797137239594,496895.78331492335,0.40084335568448826,1.3042491437843748,496.89578331492334,28808.506639968233,109.26247792756692,20319.22323027666,-7.994165770169752e-06,-2.8863086077191386e-05,1.859646207039604e-05,-2.9856966969947964e-05,1.6495387270325977e-06,1.8672262091853808e-05,3.5253550548610345e-05,35253.55054861034,0.2875637322925736,0.7504384676954085,-0.5502958412635642,0.22654733095086055,0.001528879853986272,-0.0014401222341729818,0.0033992264872349845,-1.1737356712552722,-0.7161825793913671,2.897552907208128,-67.25010022688176,-41.03423915991834,166.01755249888757,2.401727388673702e-06,3.157538075967641e-05,-1.5493219862745654e-05,3.5253550548610345e-05,1.0000000000000007,1.025053474133818e-15,2.220446049250313e-16,4.573145186427933e-16,-1.6154594336657704e-16,4.573145186427933e-16,2.220446049250313e-16,1.3770517589217566e-16,-1.6154594336657704e-16,1.3770517589217566e-16,6.661338147750939e-16
370.0,2026-01-01T12:06:10.000,6301455.638830924,-334057.32072775654,2720678.54680787,-3036.602138748715,-851.6674950427762,6936.275121073711,6871828.666137307,7619.5933373370935,1674478.894064289,6076912.570840145,2736655.4873503344,23.59903744271629,74.59458166638358,497096.22738560534,0.411880903676822,1.3019210542261916,497.09622738560535,28587.966448282285,158.7781034606594,21035.01093282124,-8.31390834562461e-06,-2.9574606014159046e-05,1.777611679208883e-05,-3.062373053072962e-05,1.7876439801568755e-06,1.7853856133990165e-05,3.5493220781886656e-05,35493.22078188666,0.27395317839970035,0.7447727730374221,-0.5632874032544851,0.23015315318645907,0.0015215033648646806,-0.001454517372726818,0.0033962832209905014,-1.221749346787182,-0.7094971590084218,2.9442108974730585,-70.00108119377073,-40.651192787704844,168.6908584216306,2.4104026453441685e-06,3.18277385309864e-05,-1.552268470858803e-05,3.5493220781886656e-05,1.0000000000000002,5.60563984672055e-16,0.0,1.298997185738149e-16,-1.263229012104872e-16,1.298997185738149e-16,2.220446049250313e-16,3.201658568823413e-17,-1.263229012104872e-16,3.201658568823413e-17,4.440892098500626e-16
380.0,2026-01-01T12:06:20.000,6270703.226304732,-342553.3047213878,2789872.78369853,-3113.817234948414,-847.5119197478201,6902.430676264056,6871859.418540655,7619.559269892681,1680563.7095537554,6043658.3050731225,2805771.15564287,24.231318769581282,74.46031436474846,497300.9543859297,0.4229162946294946,1.2995776477348906,497.3009543859297,28360.482101063957,208.31331892713337,21741.56218654476,-8.630566273408863e-06,-3.025975803158584e-05,1.6938601932425778e-05,-3.1364339890853865e-05,1.9272875900996804e-06,1.7018214122324054e-05,3.5735918431701584e-05,35735.91843170158,0.26022384714446506,0.7388245026159583,-0.5760713464321012,0.23358875728836415,0.0015140601881107319,-0.0014688301349974156,0.003393325205721321,-1.268988987406054,-0.7009934462789469,2.9900162283616787,-72.70771322694688,-40.16396593811426,171.31531056074874,2.445490372777456e-06,3.2087959496601806e-05,-1.553828492267805e-05,3.5735918431701584e-05,1.0000000000000002,6.027385634708917e-16,2.220446049250313e-16,2.2754217298394723e-16,5.956921224650107e-17,2.2754217298394723e-16,4.440892098500626e-16,5.5348351129629295e-17,5.956921224650107e-17,5.5348351129629295e-17,0.0
390.0,2026-01-01T12:06:30.000,6239180.572531368,-351007.212307105,2858724.335746694,-3190.6488086501586,-843.2523003105484,6867.738859915581,6871890.94118459,7619.524349335349,1686393.9481392715,6009656.211340737,2874542.186280761,24.8634729277805,74.32513423041493,497509.8740698066,0.43394946607024404,1.2972183093074823,497.5098740698066,28126.27849695622,257.8740138786822,22438.67681753899,-8.943909602283088e-06,-3.0918177538482326e-05,1.6084807650152764e-05,-3.2078391807269206e-05,2.068381177833561e-06,1.6166225140685663e-05,3.598122089280503e-05,35981.22089280503,0.2463806367053577,0.7325968484702584,-0.5886417268511123,0.2368530280107231,0.0015065509033498434,-0.0014830599562035821,0.0033903530221849965,-1.3152919677931865,-0.6907240171112958,3.034807297993093,-75.36067858200659,-39.575570988799306,173.8816498105054,2.5079366113070123e-06,3.235492673798415e-05,-1.5540824517063874e-05,3.598122089280503e-05,1.0000000000000002,4.958955985611181e-16,0.0,8.14234553698999e-17,-1.329386414521038e-16,8.14234553698999e-17,0.0,6.793210434931037e-18,-1.329386414521038e-16,6.793210434931037e-18,4.440892098500626e-16
400.0,2026-01-01T12:06:40.000,6206891.560038208,-359418.0056702887,2927224.7506305706,-3267.087407472,-838.8891642291441,6832.203968156228,6871923.230186565,7619.488579977851,1691967.812294094,5974910.830848285,2942960.1368605597,25.495496302412615,74.18900489388969,497722.8944191321,0.44498035490714005,1.2948424041765614,497.7228944191321,27885.582138272708,307.465217410219,23126.16572222773,-9.253713484995887e-06,-3.1549535245559794e-05,1.5215629450962516e-05,-3.2765518278039635e-05,2.2108349062659246e-06,1.5298783837056963e-05,3.62287146598428e-05,36228.7146598428,0.2324284981614546,0.7260931093712616,-0.6009926912417679,0.23994494126770194,0.0014989760915779266,-0.001497206281995403,0.0033873672524256855,-1.3605179119738073,-0.678749777865698,3.0784445970266554,-77.95193430805041,-38.88949761714664,176.3818828744788,2.598609743439943e-06,3.262745597201782e-05,-1.5531133574200143e-05,3.6228714659842805e-05,1.0000000000000004,5.687683325987742e-16,2.220446049250313e-16,1.960265203974037e-16,7.119200709632204e-18,1.960265203974037e-16,0.0,3.4802190957049495e-18,7.119200709632204e-18,3.4802190957049495e-18,4.440892098500626e-16
410.0,2026-01-01T12:06:50.000,6173840.165631478,-367784.6523353041,2995365.619510915,-3343.1236282203254,-834.4230517910072,6795.830401273755,6871956.281569748,7619.451966237589,1697283.542625639,5939426.798426641,3011016.6087003835,26.127385239916155,74.05188879228284,497939.92168943066,0.4560088973735055,1.2924492767460227,497.93992168943066,27638.620764718922,357.09100998932695,23803.850710268507,-9.559758294574728e-06,-3.215353682217832e-05,1.4331966772786296e-05,-3.3425386203080915e-05,2.354557500872656e-06,1.4416788732937407e-05,3.64779958498295e-05,36477.9958498295,0.21837243354364688,0.7193166891689958,-0.6131184796729787,0.24286356423859687,0.001491336335035723,-0.0015112685684191844,0.0033843684796404975,-1.404550111624127,-0.6651383271867702,3.1208121285922603,-80.47479351069114,-38.1096189401936,178.80936362157527,2.718295966871993e-06,3.290429960302888e-05,-1.5510064986671737e-05,3.6477995849829516e-05,1.0000000000000004,8.167769105243898e-16,2.220446049250313e-16,2.511422689438007e-16,-1.292457189864484e-16,2.511422689438007e-16,4.440892098500626e-16,1.7865675487624194e-16,-1.292457189864484e-16,1.7865675487624194e-16,4.440892098500626e-16
420.0,2026-01-01T12:07:00.000,6140030.459898522,-376106.12529304967,3063138.578069817,-3418.7481180612604,-829.8545160036991,6758.622663153318,6871990.091263534,7619.414512636046,1702339.418225889,5903208.841900099,3078703.2478774283,26.75913604468303,73.91374710495198,498160.86045630695,0.4670350289688113,1.2900382494678388,498.160860456307,27385.62300341973,406.75443215776875,24471.56432890149,-9.861829719533796e-06,-3.2729922498969416e-05,1.343472161793653e-05,-3.405769688912847e-05,2.4994563315056173e-06,1.35211411045927e-05,3.6728670764338324e-05,36728.67076433833,0.20421749386176843,0.7122710951026848,-0.625013428168719,0.24560805542739508,0.0014836322170843459,-0.0015252462818792164,0.003381357288046723,-1.4472958594894851,-0.6499622951325502,-3.1213675646419197,-82.92394445550651,-37.24009635373154,-178.84118776301017,2.8676953946588156e-06,3.318415099786706e-05,-1.5478491586371476e-05,3.672867076433833e-05,1.0000000000000007,8.700070820317886e-16,2.220446049250313e-16,2.2903977200253077e-16,-2.9577616421872907e-16,2.2903977200253077e-16,4.440892098500626e-16,1.2902044535812228e-16,-2.9577616421872907e-16,1.2902044535812228e-16,4.440892098500626e-16
430.0,2026-01-01T12:07:10.000,6105466.606850476,-384381.40313231165,3130535.307580508,-3493.9515753588876,-825.1841225448295,6720.585360869339,6872024.65525615,7619.376223798388,1707133.7570528402,5866261.781589808,3146011.746296863,27.390744975116966,73.7745396855854,498385.6138147056,0.47805868438988336,1.2876086216566873,498.38561381470555,27126.818034541215,456.45739090940157,25129.149668510832,-1.0159718838643097e-05,-3.327846661824387e-05,1.2524797233863451e-05,-3.466218593556925e-05,2.6454374485343524e-06,1.2612743566503114e-05,3.6980356588335494e-05,36980.3565883355,0.1899687771085099,0.7049599360746426,-0.6366719712766176,0.2481776646764954,0.0014758643220820768,-0.001539138899096402,0.003378334262750001,-1.4886858386016362,-0.6332977382713098,-3.081792782506631,-85.2954155727674,-36.28528757812668,-176.5737197715084,3.047418263328004e-06,3.3465649429768425e-05,-1.5437302988949334e-05,3.69803565883355e-05,1.0000000000000002,2.64639806340422e-16,0.0,9.785240185828193e-19,-9.225057738883857e-17,9.785240185828193e-19,0.0,-4.3059072493057356e-17,-9.225057738883857e-17,-4.3059072493057356e-17,2.220446049250313e-16
440.0,2026-01-01T12:07:20.000,6070152.862806237,-392609.4701483947,3197547.5357920793,-3568.724752119575,-820.412449609394,6681.7232034421595,6872059.969000195,7619.337104452221,1711664.9161233755,5828590.5290809255,3212933.842573708,28.022208240942373,73.63422499016255,498614.08283225045,0.4890797974839329,1.2851596682326256,498.61408283225046,26862.435284215837,506.20056539085306,25776.460165053857,-1.0453222182670326e-05,-3.379897715351262e-05,1.1603096846435243e-05,-3.523862241185683e-05,2.792405617790391e-06,1.1692498714790386e-05,3.7232681407804366e-05,37232.68140780437,0.17563142624098446,0.6973869208890549,-0.6480886445876856,0.250571733134321,0.001468033235262461,-0.0015529459070637932,0.0033752999896134537,-1.528672754884899,-0.6152226527340421,-3.043695878593834,-87.58649711154132,-35.24966146250329,-174.3909279647897,3.257981599078178e-06,3.3747384624985115e-05,-1.5387402369745416e-05,3.723268140780436e-05,0.9999999999999999,3.925009951819279e-16,0.0,-7.440326005922466e-17,8.739446538197435e-17,-7.440326005922466e-17,-1.1102230246251565e-16,-4.717117448366747e-17,8.739446538197435e-17,-4.717117448366747e-17,-3.3306690738754696e-16
450.0,2026-01-01T12:07:30.000,6034093.5767329885,-400789.3164940517,3264167.0381587124,-3643.0584532417042,-815.540087953894,6642.0410021973885,6872096.028286268,7619.29715942796,1715931.2920606667,5790200.087400914,3279461.3232629173,28.65352199727556,73.4927600012297,498846.16747053084,0.5000983011450802,1.28269063839945,498.8461674705308,26592.704119039878,555.9833114095518,26413.35936837508,-1.0742141771202349e-05,-3.4291295162601704e-05,1.0670522441146588e-05,-3.578680864826419e-05,2.940264349772294e-06,1.0761308097284787e-05,3.7485284841370825e-05,37485.28484137083,0.16121062714078077,0.6895558564567508,-0.6592580872061926,0.2527896931765717,0.0014601395426137545,-0.0015666668029990802,0.0033722550551278383,-1.5672294195157774,-0.5958156485960706,-3.0071039508123807,-89.79563126699198,-34.1377220324046,-172.29436493866493,3.4998063566929413e-06,3.402790215711001e-05,-1.5329703516066622e-05,3.748528484137083e-05,1.0,1.7781134753853433e-16,0.0,8.15411634298315e-17,-8.413125202520606e-17,8.15411634298315e-17,0.0,4.562245889817304e-17,-8.413125202520606e-17,4.562245889817304e-17,0.0
460.0,2026-01-01T12:07:40.000,5997293.18913249,-408919.93828758533,3330385.6387200905,-3716.943538908035,-810.5676407439287,6601.543669524615,6872132.828673868,7619.256393657579,1719931.3212809523,5751095.549787863,3345586.02373696,29.28468234128951,73.35010014727462,499081.7660651872,0.5111141272561437,1.2802007542375198,499.08176606518725,26317.853577795,605.8035679337806,27039.720722063998,-1.1026285144647222e-05,-3.475529423213545e-05,9.727973600859526e-06,-3.6306579543698724e-05,3.088915956215315e-06,9.820070852831957e-06,3.7737818054335414e-05,37737.81805433542,0.1467116065533004,0.6814706459670737,-0.6701750441687574,0.2548310682808769,0.001452183830759769,-0.001580301094294072,0.003369200046282757,-1.6043464825673022,-0.5751548108400588,-2.9720264174333817,-91.92228232776532,-32.95394322778058,-170.284570320319,3.7732147380301265e-06,3.430570860373446e-05,-1.526512755395436e-05,3.773781805433543e-05,1.0000000000000007,6.194532902705811e-16,2.220446049250313e-16,1.3560292184876903e-16,-1.576801132067466e-16,1.3560292184876903e-16,2.220446049250313e-16,-2.6431026649922138e-17,-1.576801132067466e-16,-2.6431026649922138e-17,4.440892098500626e-16
470.0,2026-01-01T12:07:50.000,5959756.231625054,-417000.3377407736,3396195.2111432715,-3790.370925414516,-805.4957234960316,6560.236218403722,6872170.365631375,7619.214812174156,1723663.4803496513,5711282.099134079,3411299.8292266293,29.915685307143395,73.20619921753033,499320.77551533334,0.5221272066001433,1.2776892092168008,499.32077551533337,26038.11211495721,655.6577652403001,27655.42732510143,-1.1305465380253673e-05,-3.51908798789303e-05,8.776346394300588e-06,-3.6797801844382186e-05,3.2382615457499834e-06,8.869682709044043e-06,3.798994379801337e-05,37989.94379801337,0.1321396300071335,0.6731352870279474,-0.6808343688117703,0.2566954728546243,0.0014441666868421639,-0.0015938482984612177,0.003366135550438961,-1.6400299977203685,-0.5533167562515433,-2.938457455809096,-93.96679714422714,-31.70271486708234,-168.3612104966108,4.078428105152647e-06,3.457927685712418e-05,-1.5194599896202369e-05,3.7989943798013393e-05,1.0000000000000007,9.50864228948232e-16,2.220446049250313e-16,1.8442071064436167e-16,-2.5098485037698095e-16,1.8442071064436167e-16,4.440892098500626e-16,9.970131031806032e-17,-2.5098485037698095e-16,9.970131031806032e-17,6.661338147750939e-16
480.0,2026-01-01T12:08:00.000,5921487.326382757,-425029.5232819879,3461587.6797254053,-3863.3315862992276,-800.3249639991092,6518.123761765046,6872208.634536617,7619.172420111228,1727126.2862947383,5670765.007283703,3476594.6758223106,30.546526860847283,73.06100927163214,499563.0913342482,0.5331374687706728,1.275155166620085,499.5630913342482,25753.70736658277,705.5407364890598,28260.371690091066,-1.1579501099531385e-05,-3.55979889281754e-05,7.816532317593204e-06,-3.7260373844390495e-05,3.388201077945933e-06,7.91103490165666e-06,3.8241336780813024e-05,38241.33678081302,0.11749999971417602,0.6645538697752151,-0.6912310250863147,0.25838261201574203,0.001436088698404234,-0.0016073079430772065,0.003363062155201799,-1.6742989662368446,-0.5303758828853838,-2.9063784628045615,-95.93026440848791,-30.388299644857327,-166.52321958642128,4.415565178930821e-06,3.4847052015411e-05,-1.5119047217646267e-05,3.824133678081303e-05,1.000000000000001,1.389182431510808e-15,4.440892098500626e-16,5.211023199692153e-16,-1.842883993974694e-16,5.211023199692153e-16,4.440892098500626e-16,2.603044238264148e-16,-1.842883993974694e-16,2.603044238264148e-16,8.881784197001252e-16
490.0,2026-01-01T12:08:10.000,5882491.185551412,-433006.5096785173,3526555.020389982,-3935.8165534637315,-795.0560022343327,6475.211511836954,6872247.6306774495,7619.129222702144,1730318.2969173202,5629549.63431795,3541462.551468756,31.1772028947598,72.91448054373322,499808.60770071717,0.5441448420758657,1.27259775786949,499.8086077007172,25464.86593704321,755.4456338287937,28854.455498199473,-1.1848216468461173e-05,-3.597658887010698e-05,6.849417287814242e-06,-3.769422452825997e-05,3.538633368512796e-06,6.9450132074049645e-06,3.849168348298964e-05,38491.68348298964,0.10279805245119526,0.6557305749517018,-0.7013600898196366,0.2598922813281364,0.0014279504532762235,-0.0016206795657237277,0.003359980448295834,-1.7071829731610615,-0.5064037995236578,-2.8757604240401617,-97.81437921872451,-29.01480044209464,-164.76893518825324,4.784640703084579e-06,3.5107456845873036e-05,-1.503939441973003e-05,3.849168348298965e-05,1.0000000000000004,5.581229472270547e-16,2.220446049250313e-16,3.4506508111552916e-17,1.6284874339851415e-17,3.4506508111552916e-17,2.220446049250313e-16,7.989553271272257e-17,1.6284874339851415e-17,7.989553271272257e-17,4.440892098500626e-16
500.0,2026-01-01T12:08:20.000,5842772.610661353,-440930.3181580846,3591089.2616765006,-4007.8169182866786,-789.689490293497,6431.504779480925,6872287.349252339,7619.085225279405,1733238.1110936308,5587641.4278296875,3605895.496953252,31.807709221693692,72.76656134072441,500057.2175109191,0.5551492534355179,1.2700160807500602,500.0572175109191,25171.81320660975,805.3638502199574,29437.589352938456,-1.2111441192662634e-05,-3.632667719918515e-05,5.875880687591149e-06,-3.809931300890217e-05,3.689456151375352e-06,5.972496889430166e-06,3.87406822027888e-05,38740.6822027888,0.08803915742722312,0.6466696719370342,-0.7112167549154151,0.2612243665585957,0.0014197525394615959,-0.0016339627139267245,0.0033568910174402544,-1.7387199945657041,-0.48146891671905123,-2.846566113153323,-99.62131744362428,-27.586136894737354,-163.09622438864454,5.185564399806044e-06,3.535889766748078e-05,-1.495656160798874e-05,3.87406822027888e-05,1.0000000000000002,4.609483748141157e-16,2.220446049250313e-16,1.8646593338340102e-16,-1.1988917106185481e-16,1.8646593338340102e-16,0.0,8.826062482858572e-17,-1.1988917106185481e-16,8.826062482858572e-17,2.220446049250313e-16
