t_s,t_utc,x_eci_m,y_eci_m,z_eci_m,vx_eci_mps,vy_eci_mps,vz_eci_mps,r_norm_m,v_norm_mps,x_ecef_m,y_ecef_m,z_ecef_m,lat_deg,lon_deg,alt_m,lat_rad,lon_rad,alt_km,B_N_nT,B_E_nT,B_D_nT,Bx_ecef_T,By_ecef_T,Bz_ecef_T,Bx_eci_T,By_eci_T,Bz_eci_T,B_norm_T,B_norm_nT,q_eci_from_body_w,q_eci_from_body_x,q_eci_from_body_y,q_eci_from_body_z,omega_body_x_radps,omega_body_y_radps,omega_body_z_radps,yaw_eci_from_body_rad,pitch_eci_from_body_rad,roll_eci_from_body_rad,yaw_eci_from_body_deg,pitch_eci_from_body_deg,roll_eci_from_body_deg,Bx_body_T,By_body_T,Bz_body_T,B_body_norm_T,det_R_eci_from_body,RT_R_minus_I_fro,RT_R_minus_I_11,RT_R_minus_I_12,RT_R_minus_I_13,RT_R_minus_I_21,RT_R_minus_I_22,RT_R_minus_I_23,RT_R_minus_I_31,RT_R_minus_I_32,RT_R_minus_I_33
0.0,2026-01-01T12:00:00.000,6871258.863000001,0.0,0.0,0.0,-928.6717675671225,7563.424592946154,6871258.863000001,7620.22459151034,1289995.3972881434,6749059.6362788705,17443.144292174,0.1463587376479352,79.17916738986841,493122.0014389291,0.0025544418610190505,1.3819371699409284,493.1220014389291,30634.186002248964,-1746.662962665585,-9018.10982793216,3.3939550385911377e-06,8.452952847750707e-06,3.065712226781741e-05,9.017623552720775e-06,-1.7456712258888874e-06,3.0634385673099785e-05,3.198172115655601e-05,31981.721156556014,1.0,0.0,0.0,0.0,0.0017453292519943296,0.0,0.0,0.0,-0.0,0.0,0.0,-0.0,0.0,9.017623552720775e-06,-1.7456712258888874e-06,3.0634385673099785e-05,3.198172115655601e-05,1.0,0.0,0.0,0.0,0.0,0.0,0.0,0.0,0.0,0.0,0.0
10.0,2026-01-01T12:00:10.000,6870836.748083066,-9286.52750779967,75632.69713643612,-84.42211640495762,-928.614717441409,7562.9599569585835,6871259.285114918,7620.224123852661,1303923.3489508838,6745763.504049046,93074.22188026519,0.78097253519762,79.05992368228284,493126.2266654772,0.013630542106845773,1.3798559746312749,493.1262266654772,30765.341494447912,-1690.4647881242922,-8191.489389442118,3.134615039694547e-06,7.309337262681586e-06,3.08741345501461e-05,7.847451540367748e-06,-1.6999711462656481e-06,3.085436774998839e-05,3.1882038937748e-05,31882.038937748002,0.9999619230641713,0.008726535498373938,0.0,0.0,0.0017453292519943296,0.0,0.0,0.0,-0.0,0.017453292519943302,0.0,-0.0,1.0000000000000004,7.847451540367748e-06,-1.1612292660878664e-06,3.0879337067709864e-05,3.1882038937748e-05,1.0,8.356168631719327e-19,0.0,0.0,0.0,0.0,0.0,5.90870350422705e-19,0.0,5.90870350422705e-19,0.0
20.0,2026-01-01T12:00:20.000,6869570.455350527,-18571.91403666011,151256.10174512412,-168.83382926581297,-928.4435741367497,7561.56610659661,6871260.55140765,7620.222720937426,1317686.3653497016,6741621.955298073,168693.8639827627,1.4155823634145037,78.9406568867156,493136.49950183457,0.02470657307474601,1.3777743763603236,493.1364995018346,30886.039190907362,-1634.7053645589162,-7360.497960091716,2.8694833454048676e-06,6.159182687058015e-06,3.105844720377351e-05,6.66961872608812e-06,-1.6515303524218372e-06,3.104166944923033e-05,3.1793027673558166e-05,31793.027673558165,0.9998476951563913,0.017452406437283494,0.0,0.0,0.0017453292519943296,0.0,0.0,0.0,-0.0,0.034906585039886556,0.0,-0.0,1.999999999999998,6.66961872608812e-06,-5.671856441704608e-07,3.108039728100812e-05,3.1793027673558166e-05,1.0000000000000002,3.0293949276348764e-18,0.0,0.0,0.0,0.0,0.0,-2.1421056962227514e-18,0.0,-2.1421056962227514e-18,0.0
30.0,2026-01-01T12:00:30.000,6867460.140850647,-27855.018749088675,226860.9224503059,-253.22473634349979,-928.1583588696806,7559.243214655052,6871262.661722146,7620.220382938038,1331281.5304858256,6736635.7398004215,244292.77968827548,2.0501849675118824,78.82134822345235,493152.8152933358,0.035782477957975324,1.3756920473602265,493.15281529333583,30996.177635929762,-1579.3672065240391,-6525.597187611452,2.5987247757929965e-06,5.003656958029428e-06,3.120978843331306e-05,5.485294464835574e-06,-1.600305429784533e-06,3.119601600760844e-05,3.1714994049842035e-05,31714.994049842036,0.9996573249755574,0.026176948307873125,0.0,0.0,0.0017453292519943296,0.0,0.0,0.0,-0.0,0.052359877559829834,0.0,-0.0,2.999999999999997,5.485294464835574e-06,3.456106191742247e-08,3.12370164668228e-05,3.171499404984203e-05,0.9999999999999999,1.5700937589389907e-16,0.0,0.0,0.0,0.0,-1.1102230246251565e-16,1.4288183066991022e-19,0.0,1.4288183066991022e-19,-1.1102230246251565e-16
40.0,2026-01-01T12:00:40.000,6864506.064642123,-37134.70109046778,302437.8701800558,-337.58443800884845,-927.7591069980688,7555.991569100626,6871265.615798345,7620.217110143473,1344705.9501287255,6730805.715201611,319861.6806532738,2.684777092543185,78.70197887250983,493175.1666841464,0.04685819994699908,1.373608659160311,493.1751666841464,31095.66973662622,-1524.4330351436324,-5687.251544713815,2.3225142919128665e-06,3.84393595273675e-06,3.1327934600543603e-05,4.295657879250913e-06,-1.5462579612498595e-06,3.1317180788153625e-05,3.1648213264198624e-05,31648.213264198625,0.9993908270190958,0.03489949670250099,0.0,0.0,0.0017453292519943296,0.0,0.0,0.0,-0.0,0.06981317007977322,0.0,-0.0,4.000000000000003,4.295657879250913e-06,6.420847448179568e-07,3.134875521262526e-05,3.164821326419862e-05,0.9999999999999999,1.570184857061041e-16,0.0,0.0,0.0,0.0,-1.1102230246251565e-16,1.2044843879025194e-18,0.0,1.2044843879025194e-18,-1.1102230246251565e-16
50.0,2026-01-01T12:00:50.000,6860708.590761453,-46409.82093044698,377977.65931782674,-421.90253854709624,-927.2458680165734,7551.811573034988,6871269.413272207,7620.212902958255,1357956.7523281996,6724132.846880281,395391.2822535442,3.3193554833244794,78.58252995548807,493203.5436209917,0.057933682228139896,1.37152388227034,493.2035436209917,31184.442671850877,-1469.8858019490817,-4845.927423288038,2.0410366026036935e-06,2.6812010744503303e-06,3.1412710357460385e-05,3.1018953108243164e-06,-1.4893545863605333e-06,3.140498543153152e-05,3.159292708119864e-05,31592.92708119864,0.9990482215818578,0.043619387365336056,0.0,0.0,0.0017453292519943296,0.0,0.0,0.0,-0.0,0.0872664625997166,0.0,-0.0,5.000000000000007,3.1018953108243164e-06,1.2534376887535295e-06,3.1415285785729096e-05,3.159292708119864e-05,1.0,2.578015256787289e-18,0.0,0.0,0.0,0.0,0.0,1.8229320700766708e-18,0.0,1.8229320700766708e-18,0.0
60.0,2026-01-01T12:01:00.000,6856068.187177278,-55679.23870428066,453471.0088535534,-506.16864746187406,-926.618705550293,7546.703744642979,6871274.053675757,7620.20776190239,1371031.087925391,6716618.207795735,470872.304735168,3.9539168843476173,78.46298251728768,493237.9333582755,0.06900886798206177,1.3694373858614186,493.2379333582755,31262.43776973859,-1415.7087094105764,-4002.0922527870125,1.7544857484211633e-06,1.5166367727151685e-06,3.146398864598594e-05,1.9051980955505974e-06,-1.4295670445527133e-06,3.145929985349343e-05,3.154934213244664e-05,31549.34213244664,0.9986295347545563,0.052335956243279365,0.0,0.0,0.0017453292519943296,0.0,0.0,0.0,-0.0,0.10471975512033176,0.0,-0.0,6.000000000038502,1.9051980955505974e-06,1.866656542478524e-06,3.1436392963559054e-05,3.154934213244664e-05,1.0,2.1432786183835453e-18,0.0,0.0,0.0,0.0,0.0,1.5155268450311395e-18,0.0,1.5155268450311395e-18,0.0
70.0,2026-01-01T12:01:10.000,6850585.425731677,-64941.81555409311,528908.6435341636,-590.3723807784903,-925.8776973465974,7540.66871712611,6871279.536437145,7620.201687611308,1383926.1310588024,6708262.978321657,546295.4743648755,4.588458039681121,78.34331750768729,493278.3204645493,0.08008370038204018,1.3673488374444611,493.27832046454927,31329.610356148012,-1361.8852281287,-3156.213644119258,1.463064664498228e-06,3.514281042859342e-07,3.148169056904332e-05,7.067596269382739e-07,-1.3668721974895664e-06,3.1480042124467004e-05,3.151762841542423e-05,31517.628415424228,0.9981347984217634,0.06104853953654992,0.0,0.0,0.0017453292519943296,0.0,0.0,0.0,-0.0,0.1221730476429955,0.0,-0.0,7.000000000194372,7.067596269382739e-07,2.4797683247779547e-06,3.1411974481364825e-05,3.1517628415424234e-05,1.0,7.06355779363537e-18,0.0,0.0,0.0,0.0,0.0,-4.9946896151826576e-18,0.0,-4.9946896151826576e-18,0.0
80.0,2026-01-01T12:01:20.000,6844260.982068442,-74196.41347005284,604281.2950133514,-674.5033623463439,-925.0229352651489,7533.707238621297,6871285.86088072,7620.194680835785,1396639.0796692611,6699068.446065297,621651.5245796276,5.222975692855835,78.22351576270928,493324.68683036487,0.09115812259196639,1.3652579025449605,493.32468683036484,31385.92957616554,-1308.3991106834483,-2308.758560123918,1.1669847241442407e-06,-8.13241658918992e-07,3.146578513782261e-05,-4.922265843436845e-07,-1.3012520358521756e-06,3.14671782293168e-05,3.149791817861513e-05,31497.91817861513,0.9975640502596019,0.06975647374730531,0.0,0.0,0.0017453292519943296,0.0,0.0,0.0,-0.0,0.13962634016592196,0.0,-0.0,8.000000000365295,-4.922265843436845e-07,3.0907964323475333e-06,3.134204109483277e-05,3.149791817861512e-05,0.9999999999999999,1.5702615564131932e-16,0.0,0.0,0.0,0.0,-1.1102230246251565e-16,1.629458090166374e-18,0.0,1.629458090166374e-18,-1.1102230246251565e-16
90.0,2026-01-01T12:01:30.000,6837095.635548328,-83441.89543143801,679579.7030004624,-758.5512251402837,-924.054525266111,7525.820172104817,6871293.026227115,7620.18674244184,1409167.1559997178,6689036.005672914,696931.1971352783,5.857466586732327,78.10355798576926,493377.0116774599,0.10223207776403312,1.363164244373984,493.37701167745985,31431.3781906812,-1255.234402169605,-1460.1925135123706,8.664652649936152e-07,-1.9761933691178695e-06,3.141628890017011e-05,-1.6905694888533432e-06,-1.2326936722037834e-06,3.1420721689844076e-05,3.149030502228854e-05,31490.30502228854,0.9969173337327957,0.07845909573206798,0.0,0.0,0.0017453292519943296,0.0,0.0,0.0,-0.0,0.15707963268796185,0.0,-0.0,9.000000000485421,-1.6905694888533432e-06,3.697766621432214e-06,3.122671624128209e-05,3.149030502228854e-05,1.0,3.1949518040666556e-18,0.0,0.0,0.0,0.0,0.0,-2.259172086219726e-18,0.0,-2.259172086219726e-18,0.0
100.0,2026-01-01T12:01:40.000,6829090.26915129,-92677.12554757505,754794.6164083466,-842.5056125607477,-922.9725873965489,7517.008495281559,6871301.031593334,7620.177873410631,1421507.6070926748,6678167.158620915,772125.2432541704,6.491927463347076,77.98342472854519,493435.27156929247,0.11330550903604997,1.3610675234942788,493.43527156929247,31465.952349882504,-1202.375447488311,-610.9787929889518,5.617330995310312e-07,-3.13625428397035e-06,3.133326545507905e-05,-2.887082899692162e-06,-1.1611893090574647e-06,3.134073309696211e-05,3.149484337691141e-05,31494.843376911413,0.9961946980913424,0.0871557427522648,0.0,0.0,0.0017453292519943296,0.0,0.0,0.0,-0.0,0.17453292520868144,0.0,-0.0,10.0000000005299,-2.887082899692162e-06,4.298712955045756e-06,3.106623534637899e-05,3.149484337691141e-05,1.0,5.015282630955333e-18,0.0,0.0,0.0,0.0,0.0,-3.546340357915625e-18,0.0,-3.546340357915625e-18,0.0
110.0,2026-01-01T12:01:50.000,6820245.869365744,-101900.96919863202,829916.7945000287,-926.3561797325009,-921.777255775022,7507.273300459531,6871309.875992882,7620.168074838327,1433657.7052842018,6666463.512993014,847224.4247715162,7.126355063734166,77.8630963715347,493499.44042296614,0.12437835952833154,1.3589673974809304,493.49944042296613,31489.66134535724,-1149.8068955073948,238.42228187315095,2.530220118358042e-07,-4.292260285067501e-06,3.1216824858295485e-05,-4.080587429042694e-06,-1.0867362024599604e-06,3.122731950646071e-05,3.151154824660921e-05,31511.548246609207,0.9953961983667589,0.09584575252458633,0.0,0.0,0.0017453292519943296,0.0,0.0,0.0,-0.0,0.19198621772814128,0.0,-0.0,11.0000000005022,-4.080587429042694e-06,4.891683666029265e-06,3.086094473673515e-05,3.151154824660921e-05,1.0,1.6763725069878422e-17,0.0,0.0,0.0,0.0,0.0,1.1853743674857962e-17,0.0,1.1853743674857962e-17,0.0
120.0,2026-01-01T12:02:00.000,6810563.526064829,-111112.29317624916,904937.0080340516,-1010.0925948018049,-920.4686785743716,7496.615794409684,6871319.558335873,7620.157347935975,1445614.7486935032,6653926.783243476,922219.515280418,7.760746127719527,77.74255310426622,493569.48952241783,0.1354505723401061,1.356863520575984,493.5694895224178,31502.527342342346,-1097.513700251001,1087.5540765327953,-5.942775758679588e-08,-5.443058029184285e-06,3.106712292406894e-05,-5.269913037985961e-06,-1.0093366028701184e-06,3.1080633765760555e-05,3.154039535400853e-05,31540.39535400853,0.994521895367887,0.10452846327132959,0.0,0.0,0.0017453292519943296,0.0,0.0,0.0,-0.0,0.20943951024671228,0.0,-0.0,12.000000000423572,-5.269913037985961e-06,5.474746941722905e-06,3.06113002269313e-05,3.154039535400853e-05,1.0,7.382129727937712e-18,0.0,0.0,0.0,0.0,0.0,5.21995399022356e-18,0.0,5.21995399022356e-18,0.0
130.0,2026-01-01T12:02:10.000,6800044.432369709,-120309.96582398788,979846.040408342,-1093.7045402318372,-919.047018002705,7485.03729821104,6871330.07742917,7620.145694029336,1457376.0617106229,6640558.789946109,997101.3012753789,8.39509739368433,77.62177490509946,493645.3875330123,0.14652209054538617,1.3547555433358947,493.6453875330123,31504.585093502952,-1045.4811193299747,1935.9643277771838,-3.753700369938422e-07,-6.587507028237049e-06,3.0884360428076285e-05,-6.453900984789259e-06,-9.289976826136559e-07,3.090087371027134e-05,3.1581321547299185e-05,31581.321547299183,0.9935718556762669,0.11320321377071985,0.0,0.0,0.0017453292519943296,0.0,0.0,0.0,-0.0,0.22689280276492554,0.0,-0.0,13.00000000032445,-6.453900984789259e-06,6.045996589250237e-06,3.031786532715017e-05,3.1581321547299185e-05,0.9999999999999999,1.1135917963916822e-16,0.0,0.0,0.0,0.0,-1.1102230246251565e-16,6.120263304394147e-18,0.0,6.120263304394147e-18,0.0
140.0,2026-01-01T12:02:20.000,6788689.8844999485,-129492.8571775811,1054634.6888024579,-1177.1817140961957,-917.5124502825823,7472.539247081174,6871341.431976539,7620.133114558726,1468938.9954795346,6626361.459529451,1071860.5832941611,9.029405598294261,77.50074152059305,493727.10051741166,0.15759285718824334,1.3526431122714255,493.72710051741166,31495.88163549677,-993.694709876504,2783.2058000873935,-6.945532566846137e-07,-7.72448165421653e-06,3.066878221655697e-05,-7.631405763654863e-06,-8.457314553467621e-07,3.068828127271166e-05,3.163422550177533e-05,31634.22550177533,0.9925461516410694,0.12186934340720587,0.0,0.0,0.0017453292519943296,0.0,0.0,0.0,-0.0,0.24434609528335385,0.0,-0.0,14.000000000237646,-7.631405763654863e-06,6.6035575616144e-06,2.9981309122486187e-05,3.163422550177533e-05,0.9999999999999999,1.1420623644649678e-17,0.0,0.0,0.0,0.0,0.0,-8.07560042451121e-18,0.0,-8.07560042451121e-18,0.0
150.0,2026-01-01T12:02:30.000,6776501.281610938,-138659.8391049661,1129293.7653180636,-1260.5138313703058,-915.8651656284028,7459.123190192049,6871353.6205788115,7620.119611078831,1480300.928376552,6611336.823998278,1146488.1770578404,9.663667476191312,77.37943244439433,493814.59195276076,0.16866281527742913,1.350525869479205,493.81459195276074,31476.47596945378,-942.1403223002864,3628.8369117904185,-1.0167209884098854e-06,-8.852873065676857e-06,3.0420676226698484e-05,-8.80129734713585e-06,-7.595546745055956e-07,3.0443141543335903e-05,3.169896883691721e-05,31698.968836917207,0.9914448613735903,0.1305261922217229,0.0,0.0,0.0017453292519943296,0.0,0.0,0.0,-0.0,0.261799387802521,0.0,-0.0,15.000000000193177,-8.80129734713585e-06,7.145591347683342e-06,2.9602403865616397e-05,3.169896883691721e-05,0.9999999999999999,4.379954496229176e-18,0.0,0.0,0.0,0.0,0.0,3.097095525572159e-18,0.0,3.097095525572159e-18,0.0
160.0,2026-01-01T12:02:40.000,6763480.125618428,-147809.78544608224,1203814.0981174922,-1343.690625220567,-914.1053682220004,7444.7907904712565,6871366.641734052,7620.105185258505,1491459.2664868091,6595487.020640849,1220974.9146089144,10.297879759644424,77.25782689557894,493907.8227491918,0.17973190778027748,1.3484034522636819,493.9078227491918,31446.438726394936,-890.8040922366606,4472.42233073616,-1.3416124889174252e-06,-9.971591052643077e-06,3.014037242332207e-05,-9.962462786739315e-06,-6.704887253706306e-07,3.0165781641997336e-05,3.177537729092573e-05,31775.377290925728,0.9902680687413099,0.13917310096191915,0.0,0.0,0.0017453292519943296,0.0,0.0,0.0,-0.0,0.27925268032283657,0.0,-0.0,16.000000000214506,-9.962462786739315e-06,7.67030115880508e-06,2.918202215982892e-05,3.177537729092573e-05,1.0,2.263871555846365e-17,0.0,0.0,0.0,0.0,0.0,-1.6007989288743045e-17,0.0,-1.6007989288743045e-17,0.0
170.0,2026-01-01T12:02:50.000,6749628.021010194,-156941.57215241616,1278186.5325602489,-1426.7018482910576,-912.2332761864486,7429.543824388671,6871380.493837759,7620.0898388805645,1502411.4440747737,6578814.29172277,1295311.6454473194,10.932039178155545,77.13590379642523,494006.7512696029,0.19080007761582923,1.346275492749214,494.0067512696029,31405.851818534295,-839.672431107813,5313.53353924842,-1.6689632456006033e-06,-1.1079565797071094e-05,2.9828241656946877e-05,-1.1113808289534048e-05,-5.785595092805503e-07,2.9856569647401722e-05,3.186324241053387e-05,31863.24241053387,0.989015863361509,0.14780941113233922,0.0,0.0,0.0017453292519943296,0.0,0.0,0.0,-0.0,0.29670597284455386,0.0,-0.0,17.00000000031615,-1.1113808289534048e-05,8.175936954809808e-06,2.8721133980518664e-05,3.186324241053387e-05,1.0,1.600441869246879e-16,0.0,0.0,0.0,0.0,-1.1102230246251565e-16,2.193443047161037e-17,0.0,2.193443047161037e-17,-1.1102230246251565e-16
180.0,2026-01-01T12:03:00.000,6734946.674644824,-166054.0774262754,1352401.932337304,-1509.537273987634,-910.249121558079,7413.384181728559,6871395.175183053,7620.073573841561,1513154.9240537789,6561320.984166426,1369489.2376642039,11.56614245801715,77.01364174952805,494111.33335072256,0.2018672676471093,1.3441416174806307,494.1113333507226,31354.80807733621,-788.7320157669685,6151.7493681006745,-1.998505522198118e-06,-1.2175749546251158e-05,2.9484694448339116e-05,-1.2254260695192533e-05,-4.837973134517202e-07,2.9515913366698763e-05,3.196232323997601e-05,31962.32323997601,0.987688340594452,0.15643446504456024,0.0,0.0,0.0017453292519943296,0.0,0.0,0.0,-0.0,0.31415926536774597,0.0,-0.0,18.000000000502293,-1.2254260695192533e-05,8.660800247531642e-06,2.822080333341568e-05,3.1962323239976e-05,0.9999999999999998,1.6016737927130722e-16,0.0,0.0,0.0,0.0,-1.1102230246251565e-16,2.237952294489489e-17,0.0,2.237952294489489e-17,-1.1102230246251565e-16
190.0,2026-01-01T12:03:10.000,6719437.895537701,-175146.1818597739,1426451.1806030397,-1592.1866977592451,-908.1531502567163,7396.313865347169,6871410.683960899,7620.056392151535,1523687.198447943,6543009.549217482,1443498.579073323,12.20018632181747,76.8910190142549,494221.52232544305,0.21293342067249138,1.3420014470123127,494.22152232544306,31293.410879163494,-737.969777738929,6986.656499261642,-2.329968902453546e-06,-1.3259118196802826e-05,2.9110179704709674e-05,-1.3382769466177166e-05,-3.86236665216281e-07,2.9144259050300187e-05,3.207234841631348e-05,32072.34841631348,0.9862856015361273,0.16504760586727518,0.0,0.0,0.0017453292519943296,0.0,0.0,0.0,-0.0,0.33161255789230115,0.0,-0.0,19.000000000766534,-1.3382769466177166e-05,9.123248690858336e-06,2.768218466229343e-05,3.207234841631348e-05,1.0,2.3408541423803845e-17,0.0,0.0,0.0,0.0,0.0,1.65523383784579e-17,0.0,1.65523383784579e-17,0.0
200.0,2026-01-01T12:03:20.000,6703103.594634175,-184216.76857351052,1500325.181104694,-1674.6399383762932,-905.9456220541388,7378.334990915854,6871427.018260334,7620.038295933773,1534005.7888518278,6523882.542097297,1517330.5783399004,12.834167487889285,76.76801348244108,494337.26904640155,0.2239984794160775,1.3398545954839949,494.33726904640156,31221.773759320484,-687.3728926089886,7817.84993715276,-2.663080829645857e-06,-1.432867278716345e-05,2.8705183372776084e-05,-1.4498307826924484e-05,-2.8591620150657154e-07,2.874209001669638e-05,3.219301813198666e-05,32193.018131986657,0.984807753010553,0.1736481776763177,0.0,0.0,0.0017453292519943296,0.0,0.0,0.0,-0.0,0.34906585041793026,0.0,-0.0,20.000000001092307,-1.4498307826924484e-05,9.561700402787674e-06,2.7106518994690036e-05,3.219301813198666e-05,1.0,1.1245735734097892e-16,0.0,0.0,0.0,0.0,-1.1102230246251565e-16,-1.2663048133019066e-17,0.0,-1.2663048133019066e-17,0.0
210.0,2026-01-01T12:03:30.000,6685945.7845699685,-193264.72335492354,1574014.859309171,-1756.886839205878,-903.6268105407614,7359.449786649732,6871444.1760687,7620.0192874245195,1544108.2468868191,6503942.621641478,1590976.1661068192,13.468082669698113,76.64460265327229,494458.5219107936,0.23506238651702,1.3377006701823833,494.4585219107936,31140.020015295595,-636.9287701433159,8644.93344815504,-2.997567139891319e-06,-1.5383440896733465e-05,2.8270227033980973e-05,-1.5599874432251547e-05,-1.8287850802569455e-07,2.830992533120137e-05,3.232400654480986e-05,32324.006544809858,0.9832549075616424,0.18223552550462396,0.0,0.0,0.0017453292519943296,0.0,0.0,0.0,-0.0,0.36651914294418714,0.0,-0.0,21.000000001454048,-1.5599874432251547e-05,9.974638097875782e-06,2.6495129960490848e-05,3.232400654480986e-05,1.0,2.0937285361348446e-17,0.0,0.0,0.0,0.0,0.0,-1.480489645864732e-17,0.0,-1.480489645864732e-17,0.0
220.0,2026-01-01T12:03:40.000,6667966.5794188455,-202288.93479630316,1647511.1635270587,-1838.9172694837405,-901.1970030905544,7339.660593021972,6871462.155271901,7619.999368972715,1553992.1546504227,6483192.549925527,1664426.2961179924,14.101928575165388,76.52076360732563,494585.226886425,0.24612508451770868,1.3355392710880856,494.585226886425,31048.28230002425,-586.625045747571,9467.519968104545,-3.3331525871181935e-06,-1.6422477950114236e-05,2.7805866447240136e-05,-1.668649486629099e-05,-7.716997043573452e-08,2.7848318268924275e-05,3.246496413881269e-05,32464.96413881269,0.9816271834446353,0.19080899539212628,0.0,0.0,0.0017453292519943296,0.0,0.0,0.0,-0.0,0.38397243547049875,0.0,-0.0,22.000000001818925,-1.668649486629099e-05,1.0360612889259044e-05,2.584941945519392e-05,3.246496413881269e-05,1.0,7.471766608710167e-18,0.0,0.0,0.0,0.0,0.0,5.283336836462172e-18,0.0,5.283336836462172e-18,0.0
230.0,2026-01-01T12:03:50.000,6649168.194427588,-211288.2944324442,1720805.0660337228,-1920.721125582747,-898.6565008241952,7318.9698624636885,6871480.953654673,7619.978543039684,1563655.1251649118,6461635.191876098,1737671.9463387746,14.735701905922006,76.396472979646,494717.32753896376,0.2571865158507427,1.3333699904057057,494.71732753896373,30946.702206020003,-536.4495738846015,10285.231977527978,-3.6695613576642368e-06,-1.7444868425154363e-05,2.731269004467261e-05,-1.7757222714073376e-05,3.1159391668174804e-08,2.7357854869288936e-05,3.261552011656366e-05,32615.52011656366,0.9799247046170911,0.19936793443557335,0.0,0.0,0.0017453292519943296,0.0,0.0,0.0,-0.0,0.40142572799620097,0.0,-0.0,23.000000002148887,-1.7757222714073376e-05,1.0718247878328257e-05,2.5170863242556408e-05,3.261552011656366e-05,1.0,2.9591461579791054e-17,0.0,0.0,0.0,0.0,0.0,2.092432314829144e-17,0.0,2.092432314829144e-17,0.0
240.0,2026-01-01T12:04:00.000,6629552.945738285,-220261.69687792158,1793887.564187325,-2002.2883322777432,-896.0056185704645,7297.380159049537,6871500.568900846,7619.956812198824,1573094.8028176452,6439273.514869705,1810704.1200732694,15.369399356487468,76.27170693185552,494854.76506037504,0.26824662282460404,1.331192412077061,494.85476506037503,30835.42984127621,-486.3904240769877,11097.70184439043,-4.00651757245785e-06,-1.8449726963826866e-05,2.6791317385856832e-05,-1.8811140722264272e-05,1.4205607905393494e-07,2.6839152360823287e-05,3.277528481416922e-05,32775.28481416922,0.9781476007294457,0.2079116908382717,0.0,0.0,0.0017453292519943296,0.0,0.0,0.0,-0.0,0.4188790205205804,0.0,-0.0,24.00000000240306,-1.8811140722264272e-05,1.1046241421017369e-05,2.44610063130216e-05,3.277528481416922e-05,1.0,2.431955668323324e-18,0.0,0.0,0.0,0.0,0.0,1.7196523446164846e-18,0.0,1.7196523446164846e-18,0.0
250.0,2026-01-01T12:04:10.000,6609123.250098013,-229208.03996397118,1866749.6815436285,-2083.6088440066032,-893.2446848258894,7274.894158169031,6871520.998593651,7619.9341791352845,1582308.8637996519,6416110.5883173905,1883513.8470783846,16.003017613369497,76.14644112316455,494997.4782985623,0.2793053476079427,1.3290061112752305,494.99747829856227,30714.623397892403,-436.4358801133896,11904.57213416187,-4.3437457748386395e-06,-1.9436199385268395e-05,2.624239757623029e-05,-1.9847362070342324e-05,2.5546328078531704e-07,2.629285760237205e-05,3.294385228745579e-05,32943.85228745579,0.9762960071151354,0.2164396139597447,0.0,0.0,0.0017453292519943296,0.0,0.0,0.0,-0.0,0.43633231304291703,0.0,-0.0,25.000000002540187,-1.9847362070342324e-05,1.1343370137839555e-05,2.37214581403086e-05,3.29438522874558e-05,1.0,5.075609087997163e-18,0.0,0.0,0.0,0.0,0.0,3.588997604774862e-18,0.0,3.588997604774862e-18,0.0
260.0,2026-01-01T12:04:20.000,6587881.624555917,-238126.22487495802,1939382.4689674412,-2164.6726461273133,-890.3740417126388,7251.514646183638,6871542.240216018,7619.910646645625,1591295.0165386936,6392149.583236254,1956092.184674504,16.636553354078917,76.02065068023926,495145.4037881252,0.2903626322123831,1.326810653878642,495.1454037881252,30584.4487144548,-386.5744430607714,12705.495887058909,-4.680971402131242e-06,-2.0403463600653785e-05,2.566660765532602e-05,-2.086503114230979e-05,3.7132102574575e-07,2.5719645478755216e-05,3.312080263862233e-05,33120.80263862233,0.9743700647802858,0.2249510543653032,0.0,0.0,0.0017453292519943296,0.0,0.0,0.0,-0.0,0.45378560556253,0.0,-0.0,26.00000000252126,-2.086503114230979e-05,1.1608491611746483e-05,2.2953887804836593e-05,3.312080263862233e-05,1.0,1.1202191608500407e-17,0.0,0.0,0.0,0.0,0.0,7.921145650521676e-18,0.0,7.921145650521676e-18,0.0
270.0,2026-01-01T12:04:30.000,6565830.686147737,-247015.15628441505,2011777.0057405636,-2245.469756170926,-887.39404493468,7227.244520069695,6871564.291150884,7619.886217637458,1600051.002126768,6367393.771807944,2028430.2188526217,17.270003246054113,75.89431016584396,495298.4757822894,0.30141841847375267,1.3246055959237808,495.2984757822894,30445.078833273677,-336.7948386554445,13500.136862382169,-5.017921239196345e-06,-2.135073042992886e-05,2.5064650960593405e-05,-2.186332459571001e-05,4.895663546567219e-07,2.512021722424991e-05,3.330570448116196e-05,33305.704481161956,0.972369920392967,0.2334453638755231,0.0,0.0,0.0017453292519943296,0.0,0.0,0.0,-0.0,0.4712388980788191,0.0,-0.0,27.00000000231189,-2.186332459571001e-05,1.1840546788119602e-05,2.216001896135164e-05,3.330570448116196e-05,1.0,6.568594955421615e-18,0.0,0.0,0.0,0.0,0.0,-4.644698035846372e-18,0.0,-4.644698035846372e-18,0.0
280.0,2026-01-01T12:04:40.000,6542973.151567834,-255873.74249063473,2083924.4006660937,-2325.9902250901987,-884.3050637321999,7202.086787047194,6871587.148681534,7619.86089512908,1608574.5947456018,6341846.526923259,2100519.0653778086,17.903363945489335,75.76739354613878,495456.6262859418,0.3124726480316315,1.3223904830344237,495.4566262859418,30296.693553657162,-287.0860296047703,14288.169749950348,-5.354323852320589e-06,-2.2277244320789386e-05,2.4437255472583867e-05,-2.2841451891363932e-05,6.101334684395364e-07,2.4495298828819547e-05,3.3498117142131604e-05,33498.1171421316,0.9702957262720175,0.2419218956156262,0.0,0.0,0.0017453292519943296,0.0,0.0,0.0,-0.0,0.4886921905913064,0.0,-0.0,28.000000001884697,-2.2841451891363932e-05,1.2038562100056683e-05,2.1341624823934028e-05,3.3498117142131604e-05,1.0,1.6926311410904135e-17,0.0,0.0,0.0,0.0,0.0,-1.1968709579125554e-17,0.0,-1.1968709579125554e-17,0.0
290.0,2026-01-01T12:04:50.000,6519311.836828742,-264700.8955517959,2155815.793168947,-2406.2241385037787,-881.107480834299,7176.0445641945225,6871610.809991929,7619.834682249096,1616863.6020837019,6315511.321714497,2172349.8708888576,18.536632096060423,75.63987415659703,495619.78508977103,0.3235252623071122,1.320164849826787,495.619785089771,30139.47898248762,-237.43723328039044,15069.280348728757,-5.68991000191934e-06,-2.318228397068585e-05,2.3785172147299752e-05,-2.37986563473986e-05,7.329538907092342e-07,2.3845639331196104e-05,3.3697593095961143e-05,33697.59309596114,0.9681476403754397,0.250380004064759,0.0,0.0,0.0017453292519943296,0.0,0.0,0.0,-0.0,0.5061454830996696,0.0,-0.0,29.000000001221203,-2.37986563473986e-05,1.220165126636404e-05,2.050052299072951e-05,3.3697593095961143e-05,1.0,1.1152529581146342e-16,0.0,0.0,0.0,0.0,-1.1102230246251565e-16,-7.481308767726048e-18,0.0,-7.481308767726048e-18,0.0
300.0,2026-01-01T12:05:00.000,6494849.656908318,-273495.53142060956,2227442.354392457,-2486.161617935749,-877.8016924099647,7149.1210780491565,6871635.272167066,7619.807582236012,1624915.8657514455,6288391.729074038,2243913.813993984,19.169804327541485,75.5117246663859,495787.87980550394,0.33457620247865644,1.3179282192878508,495.78787980550396,29973.627083433552,-187.83794521868532,15843.16571286078,-6.024413032734408e-06,-2.4065162853012706e-05,2.3109173241476423e-05,-2.4734215245011828e-05,8.579565932072681e-07,2.3172009155119243e-05,3.390367976470007e-05,33903.67976470007,0.9659258262883599,0.25881904510516496,0.0,0.0,0.0017453292519943296,0.0,0.0,0.0,-0.0,0.5235987756037739,0.0,-0.0,30.000000000313698,-2.4734215245011828e-05,1.232901678272899e-05,1.963857028838772e-05,3.390367976470007e-05,1.0000000000000002,3.1579338938155113e-16,0.0,0.0,0.0,0.0,2.220446049250313e-16,2.36416118788619e-17,0.0,2.36416118788619e-17,2.220446049250313e-16
310.0,2026-01-01T12:05:10.000,6469589.625384501,-282256.5700784651,2298795.2882909095,-2565.7928220503804,-874.3881080173312,7121.319664194421,6871660.532193344,7619.77959843784,1632729.2616890506,6260491.421160407,2315202.1063624197,19.802877254305702,75.38291704115113,495960.8359021639,0.34562540945592896,1.315680102125829,495.96083590216386,29799.33522621,-138.2779687715472,16609.53426543811,-6.357569240355358e-06,-2.4925229649052683e-05,2.2410050636522967e-05,-2.5647440937255414e-05,9.850681752330041e-07,2.247519843841543e-05,3.411592195421389e-05,34115.92195421389,0.9636304532105672,0.26723837607124645,0.0,0.0,0.0017453292519943296,0.0,0.0,0.0,-0.0,0.5410520681036922,0.0,-0.0,30.99999999916635,-2.5647440937255414e-05,1.2419951165442046e-05,1.8757657561754427e-05,3.411592195421389e-05,1.0,3.6940285926778567e-17,0.0,0.0,0.0,0.0,0.0,2.6120726677795113e-17,0.0,2.6120726677795113e-17,0.0
320.0,2026-01-01T12:05:20.000,6443534.854057761,-290982.9356690612,2369865.8327178815,-2645.1079478819183,-870.8671505512317,7092.643766832343,6871686.586958937,7619.750734311655,1640301.7005725782,6231814.1688906895,2386205.99381179,20.435847473702616,75.25342250404717,496138.57674341823,0.356672823851476,1.3134199960900188,496.13857674341824,29616.805737353,-88.7474511648411,17368.105880479976,-6.689118213131859e-06,-2.576186858763115e-05,2.168861416674952e-05,-2.6537680443073973e-05,1.1142129643069148e-06,2.1756015356104798e-05,3.43338631383596e-05,34333.8631383596,0.96126169594362,0.2756373557985119,0.0,0.0,0.0017453292519943296,0.0,0.0,0.0,-0.0,0.5585053605997209,0.0,-0.0,31.99999999779614,-2.6537680443073973e-05,1.2473837832559684e-05,1.7859704488929825e-05,3.43338631383596e-05,1.0,3.164694600389625e-17,0.0,0.0,0.0,0.0,0.0,-2.237777012319955e-17,0.0,-2.237777012319955e-17,0.0
330.0,2026-01-01T12:05:30.000,6416688.552561268,-299673.55663150345,2440645.2605102295,-2724.0972320592555,-867.2392561890535,7063.096938342668,6871713.433254186,7619.720993423172,1647631.1282103872,6202363.841421191,2456916.7573911003,21.06871156430419,75.12321149496222,496321.02362591587,0.36771838595011314,1.3111473852591422,496.32102362591587,29426.245454035256,-39.236926131118366,18118.611933744898,-7.01880314871459e-06,-2.657449969485231e-05,2.0945689957388237e-05,-2.7404316640681716e-05,1.2453131615573284e-06,2.1015284504542708e-05,3.45570478805694e-05,34557.0478805694,0.9588197348775293,0.28401534467240397,0.0,0.0,0.0017453292519943296,0.0,0.0,0.0,-0.0,0.5759586530923843,0.0,-0.0,32.99999999623312,-2.7404316640681716e-05,1.2490151768479439e-05,1.6946654433178567e-05,3.45570478805694e-05,1.0,3.7540319304858796e-17,0.0,0.0,0.0,0.0,0.0,-2.6545014348373916e-17,0.0,-2.6545014348373916e-17,0.0
340.0,2026-01-01T12:05:40.000,6389054.027958851,-308327.365832852,2511124.8805676065,-2802.75095202531,-863.5048743349012,7032.68283882811,6871741.067772003,7619.690379446289,1654715.5259388932,6172144.4056141665,2527325.714459227,21.70146608401145,74.99225362772982,496508.0958186142,0.3787620356758802,1.3088617392945474,496.50809581861415,29227.865282473995,10.262636820678779,18860.79532314959,-7.346371144757676e-06,-2.7362578956649264e-05,2.018211877773271e-05,-2.8246767739195816e-05,1.3782889607612232e-06,2.025384514014172e-05,3.47850227990765e-05,34785.022799076505,0.9563047559770169,0.2923717046770054,0.0,0.0,0.0017453292519943296,0.0,0.0,0.0,-0.0,0.5934119455824305,0.0,-0.0,33.999999994520145,-2.8246767739195816e-05,1.2468459803139397e-05,1.6020469205291576e-05,3.47850227990765e-05,1.0000000000000002,3.145171877613039e-16,0.0,0.0,0.0,0.0,2.220446049250313e-16,1.2518950528155758e-17,0.0,1.2518950528155758e-17,2.220446049250313e-16
350.0,2026-01-01T12:05:50.000,6360634.684330779,-316943.3007001028,2581296.0389273628,-2881.059427250971,-859.664467562077,7001.40523564589,6871769.4871082865,7619.65889616262,1661552.9110102598,6141159.925492611,2597424.2197587574,22.33410756801244,74.86051764525799,496699.71060311963,0.38980371255640045,1.3065625126570644,496.6997106031196,29021.879762514054,59.75977653976247,19594.41045973407,-7.67157346349167e-06,-2.812559839727415e-05,1.939875441451721e-05,-2.9064487926235865e-05,1.5130586478417678e-06,1.9472549700631462e-05,3.5017338515793596e-05,35017.3385157936,0.9537169507673515,0.3007057994436176,0.0,0.0,0.0017453292519943296,0.0,0.0,0.0,-0.0,0.6108652380708174,0.0,-0.0,34.99999999271209,-2.9064487926235865e-05,1.2408420746547002e-05,1.508312410915037e-05,3.5017338515793596e-05,0.9999999999999999,2.983179547012098e-17,0.0,0.0,0.0,0.0,0.0,2.1094264871892672e-17,0.0,2.1094264871892672e-17,0.0
360.0,2026-01-01T12:06:00.000,6331434.022347432,-325520.30335158465,2651150.119834687,-2959.013020443421,-855.7185115538862,6969.268002925635,6871798.687762336,7619.626547461021,1668141.3369757002,6109414.561682144,2667203.666485042,22.966632526582472,74.72797137239594,496895.78331492335,0.40084335568448826,1.3042491437843748,496.89578331492334,28808.506639968233,109.26247792756692,20319.22323027666,-7.994165770169752e-06,-2.8863086077191386e-05,1.859646207039604e-05,-2.9856966969947964e-05,1.6495387270325977e-06,1.8672262091853808e-05,3.5253550548610345e-05,35253.55054861034,0.9510565163197625,0.3090169942992091,0.0,0.0,0.0017453292519943296,0.0,0.0,0.0,-0.0,0.6283185305586867,0.0,-0.0,35.99999999087439,-2.9856966969947964e-05,1.2309785145328898e-05,1.4136602820858379e-05,3.5253550548610345e-05,1.0,3.381220133622126e-17,0.0,0.0,0.0,0.0,0.0,-2.3908836851686895e-17,0.0,-2.3908836851686895e-17,0.0
370.0,2026-01-01T12:06:10.000,6301455.638830924,-334057.32072775654,2720678.54680787,-3036.602138748715,-851.6674950427762,6936.275121073711,6871828.666137307,7619.5933373370935,1674478.894064289,6076912.570840145,2736655.4873503344,23.59903744271629,74.59458166638358,497096.22738560534,0.411880903676822,1.3019210542261916,497.09622738560535,28587.966448282285,158.7781034606594,21035.01093282124,-8.31390834562461e-06,-2.9574606014159046e-05,1.777611679208883e-05,-3.062373053072962e-05,1.7876439801568755e-06,1.7853856133990165e-05,3.5493220781886656e-05,35493.22078188666,0.9483236552364338,0.31730465631473087,0.0,0.0,0.0017453292519943296,0.0,0.0,0.0,-0.0,0.6457718230473314,0.0,-0.0,36.99999998908111,-3.062373053072962e-05,1.217239480199392e-05,1.3182892498894193e-05,3.5493220781886656e-05,1.0,3.832410665498859e-17,0.0,0.0,0.0,0.0,0.0,-2.7099235698658927e-17,0.0,-2.7099235698658927e-17,0.0
380.0,2026-01-01T12:06:20.000,6270703.226304732,-342553.3047213878,2789872.78369853,-3113.817234948414,-847.5119197478201,6902.430676264056,6871859.418540655,7619.559269892681,1680563.7095537554,6043658.3050731225,2805771.15564287,24.231318769581282,74.46031436474846,497300.9543859297,0.4229162946294946,1.2995776477348906,497.3009543859297,28360.482101063957,208.31331892713337,21741.56218654476,-8.630566273408863e-06,-3.025975803158584e-05,1.6938601932425778e-05,-3.1364339890853865e-05,1.9272875900996804e-06,1.7018214122324054e-05,3.5735918431701584e-05,35735.91843170158,0.9455185756350799,0.325568154353293,0.0,0.0,0.0017453292519943296,0.0,0.0,0.0,-0.0,0.6632251155381486,0.0,-0.0,37.99999998741231,-3.1364339890853865e-05,1.1996182157563744e-05,1.2223979017111056e-05,3.5735918431701584e-05,1.0,1.5747148751629451e-16,0.0,0.0,0.0,0.0,-1.1102230246251565e-16,-8.5254352509968e-18,0.0,-8.5254352509968e-18,-1.1102230246251565e-16
390.0,2026-01-01T12:06:30.000,6239180.572531368,-351007.212307105,2858724.335746694,-3190.6488086501586,-843.2523003105484,6867.738859915581,6871890.94118459,7619.524349335349,1686393.9481392715,6009656.211340737,2874542.186280761,24.8634729277805,74.32513423041493,497509.8740698066,0.43394946607024404,1.2972183093074823,497.5098740698066,28126.27849695622,257.8740138786822,22438.67681753899,-8.943909602283088e-06,-3.0918177538482326e-05,1.6084807650152764e-05,-3.2078391807269206e-05,2.068381177833561e-06,1.6166225140685663e-05,3.598122089280503e-05,35981.22089280503,0.9426414911331036,0.33380685911820196,0.0,0.0,0.0017453292519943296,0.0,0.0,0.0,-0.0,0.6806784080325863,0.0,-0.0,38.99999998595095,-3.2078391807269206e-05,1.178116920368155e-05,1.1261842131302444e-05,3.598122089280503e-05,1.0,3.118797855376679e-18,0.0,0.0,0.0,0.0,0.0,2.205323112686911e-18,0.0,2.205323112686911e-18,0.0
400.0,2026-01-01T12:06:40.000,6206891.560038208,-359418.0056702887,2927224.7506305706,-3267.087407472,-838.8891642291441,6832.203968156228,6871923.230186565,7619.488579977851,1691967.812294094,5974910.830848285,2942960.1368605597,25.495496302412615,74.18900489388969,497722.8944191321,0.44498035490714005,1.2948424041765614,497.7228944191321,27885.582138272708,307.465217410219,23126.16572222773,-9.253713484995887e-06,-3.1549535245559794e-05,1.5215629450962516e-05,-3.2765518278039635e-05,2.2108349062659246e-06,1.5298783837056963e-05,3.62287146598428e-05,36228.7146598428,0.9396926208313376,0.34202014320085306,0.0,0.0,0.0017453292519943296,0.0,0.0,0.0,-0.0,0.6981317005320797,0.0,-0.0,39.99999998477926,-3.2765518278039635e-05,1.152746648559558e-05,1.0298451063107982e-05,3.6228714659842805e-05,1.0000000000000002,3.142874058812411e-16,0.0,0.0,0.0,0.0,2.220446049250313e-16,9.191309562121868e-18,0.0,9.191309562121868e-18,2.220446049250313e-16
410.0,2026-01-01T12:06:50.000,6173840.165631478,-367784.6523353041,2995365.619510915,-3343.1236282203254,-834.4230517910072,6795.830401273755,6871956.281569748,7619.451966237589,1697283.542625639,5939426.798426641,3011016.6087003835,26.127385239916155,74.05188879228284,497939.92168943066,0.4560088973735055,1.2924492767460227,497.93992168943066,27638.620764718922,357.09100998932695,23803.850710268507,-9.559758294574728e-06,-3.215353682217832e-05,1.4331966772786296e-05,-3.3425386203080915e-05,2.354557500872656e-06,1.4416788732937407e-05,3.64779958498295e-05,36477.9958498295,0.936672189297373,0.35020738112847694,0.0,0.0,0.0017453292519943296,0.0,0.0,0.0,-0.0,0.7155849930379817,0.0,-0.0,40.99999998397475,-3.3425386203080915e-05,1.1235271517775033e-05,9.33575986821318e-06,3.64779958498295e-05,1.0,2.9793193322715904e-17,0.0,0.0,0.0,0.0,0.0,-2.1066969031694186e-17,0.0,-2.1066969031694186e-17,0.0
420.0,2026-01-01T12:07:00.000,6140030.459898522,-376106.12529304967,3063138.578069817,-3418.7481180612604,-829.8545160036991,6758.622663153318,6871990.091263534,7619.414512636046,1702339.418225889,5903208.841900099,3078703.2478774283,26.75913604468303,73.91374710495198,498160.86045630695,0.4670350289688113,1.2900382494678388,498.160860456307,27385.62300341973,406.75443215776875,24471.56432890149,-9.861829719533796e-06,-3.2729922498969416e-05,1.343472161793653e-05,-3.405769688912847e-05,2.4994563315056173e-06,1.35211411045927e-05,3.6728670764338324e-05,36728.67076433833,0.9335804265484726,0.3583679494117352,0.0,0.0,0.0017453292519943296,0.0,0.0,0.0,-0.0,0.7330382855514833,0.0,-0.0,41.99999998360567,-3.405769688912847e-05,1.0904867382848322e-05,8.375703318880188e-06,3.672867076433833e-05,1.0,3.1898423894108825e-17,0.0,0.0,0.0,0.0,0.0,-2.255559184468735e-17,0.0,-2.255559184468735e-17,0.0
430.0,2026-01-01T12:07:10.000,6105466.606850476,-384381.40313231165,3130535.307580508,-3493.9515753588876,-825.1841225448295,6720.585360869339,6872024.65525615,7619.376223798388,1707133.7570528402,5866261.781589808,3146011.746296863,27.390744975116966,73.7745396855854,498385.6138147056,0.47805868438988336,1.2876086216566873,498.38561381470555,27126.818034541215,456.45739090940157,25129.149668510832,-1.0159718838643097e-05,-3.327846661824387e-05,1.2524797233863451e-05,-3.466218593556925e-05,2.6454374485343524e-06,1.2612743566503114e-05,3.6980356588335494e-05,36980.3565883355,0.9304175680340732,0.3665012265921641,0.0,0.0,0.0017453292519943296,0.0,0.0,0.0,-0.0,0.7504915780735318,0.0,-0.0,42.99999998372629,-3.466218593556925e-05,1.0536620896523969e-05,7.420192696379797e-06,3.6980356588335494e-05,1.0,3.223358121278905e-17,0.0,0.0,0.0,0.0,0.0,-2.2792583857490433e-17,0.0,-2.2792583857490433e-17,0.0
440.0,2026-01-01T12:07:20.000,6070152.862806237,-392609.4701483947,3197547.5357920793,-3568.724752119575,-820.412449609394,6681.7232034421595,6872059.969000195,7619.337104452221,1711664.9161233755,5828590.5290809255,3212933.842573708,28.022208240942373,73.63422499016255,498614.08283225045,0.4890797974839329,1.2851596682326256,498.61408283225046,26862.435284215837,506.20056539085306,25776.460165053857,-1.0453222182670326e-05,-3.379897715351262e-05,1.1603096846435243e-05,-3.523862241185683e-05,2.792405617790391e-06,1.1692498714790386e-05,3.7232681407804366e-05,37232.68140780437,0.9271838546178762,0.3746065932894628,0.0,0.0,0.0017453292519943296,0.0,0.0,0.0,-0.0,0.7679448706047451,0.0,-0.0,43.99999998437201,-3.523862241185683e-05,1.0130980601611018e-05,6.471111757605753e-06,3.7232681407804366e-05,1.0,1.5549041550767218e-17,0.0,0.0,0.0,0.0,0.0,1.0994832721498892e-17,0.0,1.0994832721498892e-17,0.0
450.0,2026-01-01T12:07:30.000,6034093.5767329885,-400789.3164940517,3264167.0381587124,-3643.0584532417042,-815.540087953894,6642.0410021973885,6872096.028286268,7619.29715942796,1715931.2920606667,5790200.087400914,3279461.3232629173,28.65352199727556,73.4927600012297,498846.16747053084,0.5000983011450802,1.28269063839945,498.8461674705308,26592.704119039878,555.9833114095518,26413.35936837508,-1.0742141771202349e-05,-3.4291295162601704e-05,1.0670522441146588e-05,-3.578680864826419e-05,2.940264349772294e-06,1.0761308097284787e-05,3.7485284841370825e-05,37485.28484137083,0.9238795325595288,0.38268343224862345,0.0,0.0,0.0017453292519943296,0.0,0.0,0.0,-0.0,0.785398163145324,0.0,-0.0,44.99999998555434,-3.578680864826419e-05,9.688474788838493e-06,5.530313072265432e-06,3.7485284841370825e-05,1.0,3.197710272257403e-16,0.0,0.0,0.0,0.0,2.220446049250313e-16,-4.269599922931121e-17,0.0,-4.269599922931121e-17,2.220446049250313e-16
460.0,2026-01-01T12:07:40.000,5997293.18913249,-408919.93828758533,3330385.6387200905,-3716.943538908035,-810.5676407439287,6601.543669524615,6872132.828673868,7619.256393657579,1719931.3212809523,5751095.549787863,3345586.02373696,29.28468234128951,73.35010014727462,499081.7660651872,0.5111141272561437,1.2802007542375198,499.08176606518725,26317.853577795,605.8035679337806,27039.720722063998,-1.1026285144647222e-05,-3.475529423213545e-05,9.727973600859526e-06,-3.6306579543698724e-05,3.088915956215315e-06,9.820070852831957e-06,3.7737818054335414e-05,37737.81805433542,0.920504853495895,0.39073112838690094,0.0,0.0,0.0017453292519943296,0.0,0.0,0.0,-0.0,0.8028514556949642,0.0,-0.0,45.99999998725585,-3.6306579543698724e-05,9.209709130193794e-06,4.599614231261837e-06,3.7737818054335414e-05,1.0,2.6796338676632545e-17,0.0,0.0,0.0,0.0,0.0,-1.894787278921823e-17,0.0,-1.894787278921823e-17,0.0
470.0,2026-01-01T12:07:50.000,5959756.231625054,-417000.3377407736,3396195.2111432715,-3790.370925414516,-805.4957234960316,6560.236218403722,6872170.365631375,7619.214812174156,1723663.4803496513,5711282.099134079,3411299.8292266293,29.915685307143395,73.20619921753033,499320.77551533334,0.5221272066001433,1.2776892092168008,499.32077551533337,26038.11211495721,655.6577652403001,27655.42732510143,-1.1305465380253673e-05,-3.51908798789303e-05,8.776346394300588e-06,-3.6797801844382186e-05,3.2382615457499834e-06,8.869682709044043e-06,3.798994379801337e-05,37989.94379801337,0.9170600744219205,0.3987490688406201,0.0,0.0,0.0017453292519943296,0.0,0.0,0.0,-0.0,0.8203047482527753,0.0,-0.0,46.99999998942552,-3.6797801844382186e-05,8.695364344422527e-06,3.680794495152282e-06,3.798994379801337e-05,1.0,1.0706936412862159e-17,0.0,0.0,0.0,0.0,0.0,-7.570947343268001e-18,0.0,-7.570947343268001e-18,0.0
480.0,2026-01-01T12:08:00.000,5921487.326382757,-425029.5232819879,3461587.6797254053,-3863.3315862992276,-800.3249639991092,6518.123761765046,6872208.634536617,7619.172420111228,1727126.2862947383,5670765.007283703,3476594.6758223106,30.546526860847283,73.06100927163214,499563.0913342482,0.5331374687706728,1.275155166620085,499.5630913342482,25753.70736658277,705.5407364890598,28260.371690091066,-1.1579501099531385e-05,-3.55979889281754e-05,7.816532317593204e-06,-3.7260373844390495e-05,3.388201077945933e-06,7.91103490165666e-06,3.8241336780813024e-05,38241.33678081302,0.9135454576710877,0.4067366430118179,0.0,0.0,0.0017453292519943296,0.0,0.0,0.0,-0.0,0.8377580408172035,0.0,-0.0,47.99999999197431,-3.7260373844390495e-05,8.146193692700123e-06,2.7755914830602375e-06,3.8241336780813024e-05,1.0000000000000002,3.1405600876551635e-16,0.0,0.0,0.0,0.0,2.220446049250313e-16,-3.4324545954455435e-18,0.0,-3.4324545954455435e-18,2.220446049250313e-16
490.0,2026-01-01T12:08:10.000,5882491.185551412,-433006.5096785173,3526555.020389982,-3935.8165534637315,-795.0560022343327,6475.211511836954,6872247.6306774495,7619.129222702144,1730318.2969173202,5629549.63431795,3541462.551468756,31.1772028947598,72.91448054373322,499808.60770071717,0.5441448420758657,1.27259775786949,499.8086077007172,25464.86593704321,755.4456338287937,28854.455498199473,-1.1848216468461173e-05,-3.597658887010698e-05,6.849417287814242e-06,-3.769422452825997e-05,3.538633368512796e-06,6.9450132074049645e-06,3.849168348298964e-05,38491.68348298964,0.9099612708954656,0.41469324261471774,0.0,0.0,0.0017453292519943296,0.0,0.0,0.0,-0.0,0.855211333385962,0.0,-0.0,48.999999994771215,-3.769422452825997e-05,7.563020373930034e-06,1.885698117753961e-06,3.849168348298964e-05,1.0000000000000002,3.163908647146797e-16,0.0,0.0,0.0,0.0,2.220446049250313e-16,-2.7345622339565453e-17,0.0,-2.7345622339565453e-17,2.220446049250313e-16
500.0,2026-01-01T12:08:20.000,5842772.610661353,-440930.3181580846,3591089.2616765006,-4007.8169182866786,-789.689490293497,6431.504779480925,6872287.349252339,7619.085225279405,1733238.1110936308,5587641.4278296875,3605895.496953252,31.807709221693692,72.76656134072441,500057.2175109191,0.5551492534355179,1.2700160807500602,500.0572175109191,25171.81320660975,805.3638502199574,29437.589352938456,-1.2111441192662634e-05,-3.632667719918515e-05,5.875880687591149e-06,-3.809931300890217e-05,3.689456151375352e-06,5.972496889430166e-06,3.87406822027888e-05,38740.6822027888,0.9063077870453529,0.42261826172203604,0.0,0.0,0.0017453292519943296,0.0,0.0,0.0,-0.0,0.8726646259559793,0.0,-0.0,49.999999997640245,-3.809931300890217e-05,6.946734754237511e-06,1.0127596168109933e-06,3.87406822027888e-05,1.0000000000000002,3.140393451345398e-16,0.0,0.0,0.0,0.0,2.220446049250313e-16,2.559017380181535e-18,0.0,2.559017380181535e-18,2.220446049250313e-16
510.0,2026-01-01T12:08:30.000,5802336.492027133,-448799.9765295376,3655182.4857234242,-4079.323832729532,-784.2260922958538,6387.008973514217,6872327.785370975,7619.040433273991,1735884.369071838,5545045.922186517,3669885.60688704,32.43804156859987,72.61719793407839,500308.8124309024,0.5661506282708538,1.267409197522092,500.3088124309024,24874.773159716166,855.2849481364227,30009.69253483392,-1.236901050970335e-05,-3.664828073946075e-05,4.896794459401957e-06,-3.847562785275313e-05,3.840566072932341e-06,4.994357867171588e-06,3.898804299948242e-05,38988.04299948242,0.9025852843485153,0.43051109681111593,0.0,0.0,0.0017453292519943296,0.0,0.0,0.0,-0.0,0.8901179185233586,0.0,-0.0,51.000000000358135,-3.847562785275313e-05,6.29829158941476e-06,1.5837083268386148e-07,3.898804299948242e-05,1.0000000000000002,3.1596335859479206e-16,0.0,0.0,0.0,0.0,2.220446049250313e-16,2.475106888474395e-17,0.0,2.475106888474395e-17,2.220446049250313e-16
520.0,2026-01-01T12:08:40.000,5761187.808136197,-456614.51930270164,3718826.8292442975,-4150.328510434275,-778.6664843034346,6341.729600020219,6872368.934054865,7618.9948522146715,1738255.7527626154,5501768.737782696,3733425.030679877,33.06819556979977,72.46633444484387,500563.28294956865,0.5771488903864084,1.2647761329139027,500.56328294956865,24573.96823357347,905.1965962597037,30570.69275892956,-1.2620765180637257e-05,-3.69414549595154e-05,3.913022247922435e-06,-3.8823186431094e-05,3.991858767764351e-06,4.011459837176296e-06,3.923348762359188e-05,39233.48762359188,0.8987940462890165,0.4383711468098891,0.0,0.0,0.0017453292519943296,0.0,0.0,0.0,-0.0,0.9075712110833616,0.0,-0.0,52.00000000265338,-3.8823186431094e-05,5.618707147578554e-06,-6.759263545722073e-07,3.923348762359188e-05,1.0000000000000002,2.233425385832638e-16,0.0,0.0,0.0,0.0,2.220446049250313e-16,-1.7001220022449115e-17,0.0,-1.7001220022449115e-17,0.0
530.0,2026-01-01T12:08:50.000,5719331.625026629,-464372.98780737806,3782014.4844969134,-4220.82222781294,-773.0113542348745,6295.672261646609,6872410.790237975,7618.948487727315,1740350.9860226454,5457815.580280297,3796505.973507615,33.69816675973216,72.31391272127328,500820.5184321692,0.5881439618434351,1.2621158719860313,500.8205184321692,24269.61918665683,955.0845152152402,31120.525936954506,-1.2866551482758867e-05,-3.720628328001672e-05,2.9254185884872973e-06,-3.914203412263599e-05,4.143228872684497e-06,3.0246574800329563e-06,3.947674927879151e-05,39476.74927879151,0.894934361585645,0.4461978131426623,0.0,0.0,0.0017453292519943296,0.0,0.0,0.0,-0.0,0.9250245036304158,0.0,-0.0,53.00000000420672,-3.914203412263599e-05,4.909056249114037e-06,-1.4886453929664321e-06,3.947674927879151e-05,1.0000000000000002,2.24369142948345e-16,0.0,0.0,0.0,0.0,2.220446049250313e-16,-2.2778342027698474e-17,0.0,-2.2778342027698474e-17,0.0
540.0,2026-01-01T12:09:00.000,5676773.0956540285,-472074.43031147285,3844737.700245389,-4290.7963251288365,-767.2614017777472,6248.842656891381,6872453.348767347,7618.901345534172,1742168.8349333648,5413192.239838912,3859120.6972726593,34.32795056517839,72.15987220848821,501080.4071742485,0.5991357628242112,1.2594273578564714,501.0804071742485,23961.944986441846,1004.9324333197942,31659.13594584666,-1.3106221205452918e-05,-3.7442876376565276e-05,1.9348281394971687e-06,-3.943224390120413e-05,4.294570092768528e-06,2.03479564034411e-06,3.97175727438588e-05,39717.5727438588,0.8910065241697925,0.4539904997760029,0.0,0.0,0.0017453292519943296,0.0,0.0,0.0,-0.0,0.9424777961587693,0.0,-0.0,54.00000000468859,-3.943224390120413e-05,4.170469218397657e-06,-2.2783573201021215e-06,3.97175727438588e-05,1.0,1.8850789461356462e-17,0.0,0.0,0.0,0.0,0.0,1.3329521058845061e-17,0.0,1.3329521058845061e-17,0.0
550.0,2026-01-01T12:09:10.000,5633517.459247636,-479717.9021382414,3906988.782715056,-4360.242207569342,-761.4173382994277,6201.246579376872,6872496.604403754,7618.853431453155,1743708.1080716145,5367904.590335149,3921261.521557224,34.95754229692601,72.00414980959664,501342.8364560741,0.6101242114865401,1.2567094892767094,501.3428364560741,23651.162715639017,1054.722053208401,32186.47440417776,-1.3339631650823818e-05,-3.765137148016239e-05,9.420849564136408e-07,-3.9693915325610514e-05,4.445775255452338e-06,1.0427085698417045e-06,3.9955713892512935e-05,39955.71389251293,0.8870108331575394,0.4617486132747644,0.0,0.0,0.0017453292519943296,0.0,0.0,0.0,-0.0,0.9599310886864642,0.0,-0.0,55.000000005132726,-3.9693915325610514e-05,3.404128784150834e-06,-3.0436928236156486e-06,3.9955713892512935e-05,1.0000000000000002,2.2218917982477537e-16,0.0,0.0,0.0,0.0,0.0,5.666791636063658e-18,0.0,5.666791636063658e-18,2.220446049250313e-16
560.0,2026-01-01T12:09:20.000,5589570.040655756,-487302.46578263515,3968760.09654002,-4429.151346310094,-755.4798867564901,6152.889917111877,6872540.551822345,7618.804751397106,1744967.6567754056,5321958.588570867,3982920.824569215,35.586937140827985,71.84667973755121,501607.69259741966,0.6211092238077053,1.253961118046164,501.60769259741966,23337.48749605408,1104.4330300980907,32702.50045786324,-1.3566645640655744e-05,-3.783193167724109e-05,-5.1988195162963363e-08,-3.992717396341702e-05,4.5967363857135055e-06,4.921943148906455e-08,4.01909396339168e-05,40190.9396339168,0.8829475928348742,0.46947156283112723,0.0,0.0,0.0017453292519943296,0.0,0.0,0.0,-0.0,0.9773843812192916,0.0,-0.0,56.00000000587093,-3.992717396341702e-05,2.6112671236333275e-06,-3.78334401835338e-06,4.01909396339168e-05,1.0000000000000002,2.2345047012602233e-16,0.0,0.0,0.0,0.0,0.0,1.7696129848460464e-17,0.0,1.7696129848460464e-17,2.220446049250313e-16
570.0,2026-01-01T12:09:30.000,5544936.2496806,-494827.19102673454,4030044.065703291,-4497.515279570476,-749.4497816026586,6103.778651741958,6872585.18561332,7618.755311373049,1745946.3754016757,5275360.273471373,4044091.04408067,36.21613014821036,71.68739335704538,501874.8610127933,0.6320907134170528,1.2511810462527528,501.8748610127933,23021.132429099584,1154.0429623147963,33207.18057637362,-1.3787131531007977e-05,-3.798474521085615e-05,-1.046580489938632e-06,-4.0132170978182616e-05,4.747344766769865e-06,-9.44860565080501e-07,4.042302798213049e-05,40423.027982130494,0.8788171126344644,0.4771587603102591,0.0,0.0,0.0017453292519943296,0.0,0.0,0.0,-0.0,0.994837673752038,0.0,-0.0,57.000000006604495,-4.0132170978182616e-05,1.7931625253936179e-06,-4.496066278375515e-06,4.042302798213049e-05,1.0000000000000002,3.1549259506206156e-16,0.0,0.0,0.0,0.0,2.220446049250313e-16,2.154024589422635e-17,0.0,2.154024589422635e-17,2.220446049250313e-16
580.0,2026-01-01T12:09:40.000,5499621.580402597,-502291.1550542534,4090833.1744693457,-4565.325613660255,-743.3277686953197,6053.918857788057,6872630.500282598,7618.705117481435,1746643.2015783098,5228115.765272855,4104764.678358596,36.845116225577,71.52621901561922,502144.2262669657,0.6430685914163045,1.2483680233251329,502.1442262669657,22702.308551891892,1203.527394571589,33700.488360487165,-1.4000963235570904e-05,-3.811002478425709e-05,-2.0408936595573123e-06,-4.030908214918401e-05,4.897491038541506e-06,-1.938732755300782e-06,4.065176757385508e-05,40651.76757385508,0.8746197071091089,0.4848096203009763,0.0,0.0,0.0017453292519943296,0.0,0.0,0.0,-0.0,1.0122909662816553,0.0,-0.0,58.000000007158775,-4.030908214918401e-05,9.511362249964039e-07,-5.180679786530925e-06,4.065176757385508e-05,1.0000000000000002,2.233821748527166e-16,0.0,0.0,0.0,0.0,0.0,1.7259627249978845e-17,0.0,1.7259627249978845e-17,2.220446049250313e-16
590.0,2026-01-01T12:09:50.000,5453631.6104943,-509693.4425641038,4151119.9683090365,-4632.574024017218,-737.1146052006129,6003.31670187352,6872676.490252507,7618.654175915369,1747057.1164503363,5180231.264699236,4164934.287088129,37.473890123555194,71.3630818630985,502415.67213086016,0.6540427661866228,1.2455207428813182,502.4156721308602,22381.224807791907,1252.8598343339766,34182.4043624452,-1.4208020258657728e-05,-3.8208006867729446e-05,-3.0341425780987128e-06,-4.045810714243904e-05,5.0470653308761045e-06,-2.931611460324839e-06,4.0876957418055426e-05,40876.95741805543,0.8703556959078637,0.4924235601600909,0.0,0.0,0.0017453292519943296,0.0,0.0,0.0,-0.0,1.0297442588067711,0.0,-0.0,59.000000007455135,-4.045810714243904e-05,8.654932904631538e-08,-5.836070889055504e-06,4.0876957418055426e-05,1.0000000000000002,3.1573728597605185e-16,0.0,0.0,0.0,0.0,2.220446049250313e-16,2.3263927042706e-17,0.0,2.3263927042706e-17,2.220446049250313e-16
600.0,2026-01-01T12:10:00.000,5406972.000523956,-517033.1458830013,4210897.054816693,-4699.252256235704,-730.8110594971116,5951.978441939636,6872723.149862476,7618.602492959835,1747187.1449180061,5131713.052129266,4224592.492287867,38.10244642502113,71.19790365843328,502689.0816377244,0.6650131431813614,1.242637839357377,502.6890816377244,22058.088030190782,1302.0117814472576,34652.915919197665,-1.440818773844879e-05,-3.8278951009276424e-05,-4.02555581909954e-06,-4.057946921291492e-05,5.195957311345582e-06,-3.922724692298052e-06,4.109840706152491e-05,41098.40706152491,0.8660254037517735,0.5000000000565777,0.0,0.0,0.0017453292519943296,0.0,0.0,0.0,-0.0,1.0471975513272584,0.0,-0.0,60.00000000748631,-4.057946921291492e-05,-7.992005807540413e-07,-6.461193374649367e-06,4.109840706152491e-05,1.0,3.390761287077845e-17,0.0,0.0,0.0,0.0,0.0,-2.3976302994775702e-17,0.0,-2.3976302994775702e-17,0.0
610.0,2026-01-01T12:10:10.000,5359648.493248834,-524309.3650771036,4270157.10461934,-4765.352127085878,-724.4179110781073,5899.9104264498055,6872770.473369751,7618.550074990897,1747032.3558698592,5082567.486752944,4283731.979217276,38.73077953233746,71.03060256285384,502964.337139569,0.6759796247033183,1.239717884397322,502.964337139569,21733.10293829269,1350.9527710367174,35112.0169992425,-1.4601356500893247e-05,-3.83231391493864e-05,-5.014376186693866e-06,-4.067341424779788e-05,5.344056359760713e-06,-4.911314535923076e-06,4.131593609516835e-05,41315.936095168356,0.861629160409215,0.507538363015557,0.0,0.0,0.0017453292519943296,0.0,0.0,0.0,-0.0,1.0646508438438644,0.0,-0.0,61.00000000729509,-4.067341424779788e-05,-1.704682547626161e-06,-7.055069543164476e-06,4.131593609516836e-05,1.0,5.6716224118716564e-18,0.0,0.0,0.0,0.0,0.0,4.01044266776405e-18,0.0,4.01044266776405e-18,0.0
620.0,2026-01-01T12:10:20.000,5311666.912898411,-531521.208062662,4328892.852277887,-4830.865525523651,-717.93595045251,5847.119093582451,6872818.454950102,7618.496928474901,1746591.862406757,5032801.005718737,4342345.497276061,39.35888365363002,70.86109291824096,503241.3203638407,0.6869421096652193,1.2367593829849417,503.2413203638407,21406.472143620107,1399.6504295182192,35559.70806340001,-1.4787423124368555e-05,-3.834087493988309e-05,-5.99986122337877e-06,-4.07402102331132e-05,5.491251682957786e-06,-5.896637988298509e-06,4.152937411578572e-05,41529.37411578572,0.8571673006708478,0.5150380749620872,0.0,0.0,0.0017453292519943296,0.0,0.0,0.0,-0.0,1.0821041363578912,0.0,-0.0,62.0000000069561,-4.07402102331132e-05,-2.62843580940456e-06,-7.616791306480152e-06,4.152937411578572e-05,1.0,3.1418516037912287e-16,0.0,0.0,0.0,0.0,2.220446049250313e-16,7.235393901809513e-18,0.0,7.235393901809513e-18,2.220446049250313e-16
630.0,2026-01-01T12:10:30.000,5263033.164447504,-538667.7907156772,4387097.097180196,-4895.784413691051,-711.3659790443841,5793.610970412784,6872867.088698553,7618.443059967657,1745864.8220622304,4982420.123269861,4400425.860895384,39.98675278802227,70.68928500939306,503519.91247031343,0.6979004933320109,1.2337607692945796,503.51991247031344,21078.396165945316,1448.0705433886874,35995.99593968611,-1.4966290015014962e-05,-3.8332483066565466e-05,-6.981283696785481e-06,-4.078014641529261e-05,5.6374324909491135e-06,-6.877967079623933e-06,4.173856032365158e-05,41738.56032365158,0.8526401643241789,0.5224985647647633,0.0,0.0,0.0017453292519943296,0.0,0.0,0.0,-0.0,1.0995574288709296,0.0,-0.0,63.00000000656048,-4.078014641529261e-05,-3.5689727482164723e-06,-8.14552084036911e-06,4.173856032365158e-05,1.0000000000000004,6.280949915995342e-16,0.0,0.0,0.0,0.0,4.440892098500626e-16,6.0359697610673994e-18,0.0,6.0359697610673994e-18,4.440892098500626e-16
