t_s,t_utc,x_eci_m,y_eci_m,z_eci_m,vx_eci_mps,vy_eci_mps,vz_eci_mps,r_norm_m,v_norm_mps,x_ecef_m,y_ecef_m,z_ecef_m,lat_deg,lon_deg,alt_m,lat_rad,lon_rad,alt_km,B_N_nT,B_E_nT,B_D_nT,Bx_ecef_T,By_ecef_T,Bz_ecef_T,Bx_eci_T,By_eci_T,Bz_eci_T,B_norm_T,B_norm_nT,q_eci_from_body_w,q_eci_from_body_x,q_eci_from_body_y,q_eci_from_body_z,omega_body_x_radps,omega_body_y_radps,omega_body_z_radps,yaw_eci_from_body_rad,pitch_eci_from_body_rad,roll_eci_from_body_rad,yaw_eci_from_body_deg,pitch_eci_from_body_deg,roll_eci_from_body_deg,Bx_body_T,By_body_T,Bz_body_T,B_body_norm_T,det_R_eci_from_body,RT_R_minus_I_fro,RT_R_minus_I_11,RT_R_minus_I_12,RT_R_minus_I_13,RT_R_minus_I_21,RT_R_minus_I_22,RT_R_minus_I_23,RT_R_minus_I_31,RT_R_minus_I_32,RT_R_minus_I_33
0.0,2026-01-01T12:00:00.000,6871258.863000001,0.0,0.0,0.0,-928.6717675671225,7563.424592946154,6871258.863000001,7620.22459151034,1289995.3972881434,6749059.6362788705,17443.144292174,0.1463587376479352,79.17916738986841,493122.0014389291,0.0025544418610190505,1.3819371699409284,493.1220014389291,30634.186002248964,-1746.662962665585,-9018.10982793216,3.3939550385911377e-06,8.452952847750707e-06,3.065712226781741e-05,9.017623552720775e-06,-1.7456712258888874e-06,3.0634385673099785e-05,3.198172115655601e-05,31981.721156556014,1.0,0.0,0.0,0.0,0.0017453292519943296,-0.003490658503988659,0.0,0.0,-0.0,0.0,0.0,-0.0,0.0,9.017623552720775e-06,-1.7456712258888874e-06,3.0634385673099785e-05,3.198172115655601e-05,1.0,0.0,0.0,0.0,0.0,0.0,0.0,0.0,0.0,0.0,0.0
10.0,2026-01-01T12:00:10.000,6870836.748083066,-9286.52750779967,75632.69713643612,-84.42211640495762,-928.614717441409,7562.9599569585835,6871259.285114918,7620.224123852661,1303923.3489508838,6745763.504049046,93074.22188026519,0.78097253519762,79.05992368228284,493126.2266654772,0.013630542106845773,1.3798559746312749,493.1262266654772,30765.341494447912,-1690.4647881242922,-8191.489389442118,3.134615039694547e-06,7.309337262681586e-06,3.08741345501461e-05,7.847451540367748e-06,-1.6999711462656481e-06,3.085436774998839e-05,3.1882038937748e-05,31882.038937748002,0.9998096201095343,0.00872628280397186,-0.017452087788888675,-1.2516501676358164e-05,0.0017453997669152168,-0.003490622070088297,-5.007459654981044e-06,-0.00032981283858894104,-0.03490439908543198,0.017461202176556927,-0.018896883680375776,-1.9998747540355428,1.000453189941359,8.919966088209564e-06,-1.1635072051032118e-06,3.058667786466755e-05,3.1882038937748e-05,0.9999999999999998,5.510879700439447e-18,0.0,1.4798578077371956e-19,3.3450928426567516e-18,1.4798578077371956e-19,0.0,1.993326771769533e-18,3.3450928426567516e-18,1.993326771769533e-18,0.0
20.0,2026-01-01T12:00:20.000,6869570.455350527,-18571.91403666011,151256.10174512412,-168.83382926581297,-928.4435741367497,7561.56610659661,6871260.55140765,7620.222720937426,1317686.3653497016,6741621.955298073,168693.8639827627,1.4155823634145037,78.9406568867156,493136.49950183457,0.02470657307474601,1.3777743763603236,493.1364995018346,30886.039190907362,-1634.7053645589162,-7360.497960091716,2.8694833454048676e-06,6.159182687058015e-06,3.105844720377351e-05,6.66961872608812e-06,-1.6515303524218372e-06,3.104166944923033e-05,3.1793027673558166e-05,31793.027673558165,0.9992385523977008,0.017450384857119448,-0.034896947807938214,-5.004174014241108e-05,0.0017456113114871913,-0.003490512757371798,-1.0015219381194583e-05,-0.001321154647194981,-0.06979565841496316,0.034969939165560925,-0.0756965853683677,-3.998996655514138,2.003629924015881,8.820365956177202e-06,-5.753189924901871e-07,3.053959333566224e-05,3.1793027673558166e-05,1.0000000000000002,1.1126520657343285e-16,0.0,9.820630013919488e-19,1.910227770216253e-18,9.820630013919488e-19,-1.1102230246251565e-16,4.73115810371832e-18,1.910227770216253e-18,4.73115810371832e-18,0.0
30.0,2026-01-01T12:00:30.000,6867460.140850647,-27855.018749088675,226860.9224503059,-253.22473634349979,-928.1583588696806,7559.243214655052,6871262.661722146,7620.220382938038,1331281.5304858256,6736635.7398004215,244292.77968827548,2.0501849675118824,78.82134822345235,493152.8152933358,0.035782477957975324,1.3756920473602265,493.15281529333583,30996.177635929762,-1579.3672065240391,-6525.597187611452,2.5987247757929965e-06,5.003656958029428e-06,3.120978843331306e-05,5.485294464835574e-06,-1.600305429784533e-06,3.119601600760844e-05,3.1714994049842035e-05,31714.994049842036,0.9982870127188347,0.02617012533457263,-0.05232735536951599,-0.00011250293469291488,0.0017459638851339122,-0.003490330532791814,-1.5023579166480674e-05,-0.002979756692955888,-0.10466051764510657,0.05257413123022863,-0.1707274824822319,-5.996605942719088,3.012275831059035,8.719031363320697e-06,1.8473088076345767e-08,3.0492933581601534e-05,3.1714994049842035e-05,1.0,1.5745535152271784e-16,-1.1102230246251565e-16,-2.967267813071621e-19,2.0839415992416793e-18,-2.967267813071621e-19,-1.1102230246251565e-16,-8.106254259595804e-18,2.0839415992416793e-18,-8.106254259595804e-18,0.0
40.0,2026-01-01T12:00:40.000,6864506.064642123,-37134.70109046778,302437.8701800558,-337.58443800884845,-927.7591069980688,7555.991569100626,6871265.615798345,7620.217110143473,1344705.9501287255,6730805.715201611,319861.6806532738,2.684777092543185,78.70197887250983,493175.1666841464,0.04685819994699908,1.373608659160311,493.1751666841464,31095.66973662622,-1524.4330351436324,-5687.251544713815,2.3225142919128665e-06,3.84393595273675e-06,3.1327934600543603e-05,4.295657879250913e-06,-1.5462579612498595e-06,3.1317180788153625e-05,3.1648213264198624e-05,31648.213264198625,0.9969553607489794,0.034883323263750564,-0.06973609194929911,-0.00019977884741980323,0.0017464574868805366,-0.0034900753412657067,-2.0032838831829878e-05,-0.005315242671211363,-0.13948547318499102,0.07032247461792566,-0.304540972148253,-7.991928916885202,4.029181000522997,8.616156286896602e-06,6.174320277628276e-07,3.0446510988076487e-05,3.164821326419862e-05,1.0,2.485023570707184e-16,2.220446049250313e-16,-1.2304254031847103e-18,-7.332704943040995e-18,-1.2304254031847103e-18,0.0,2.5591241081926718e-18,-7.332704943040995e-18,2.5591241081926718e-18,-1.1102230246251565e-16
50.0,2026-01-01T12:00:50.000,6860708.590761453,-46409.82093044698,377977.65931782674,-421.90253854709624,-927.2458680165734,7551.811573034988,6871269.413272207,7620.212902958255,1357956.7523281996,6724132.846880281,395391.2822535442,3.3193554833244794,78.58252995548807,493203.5436209917,0.057933682228139896,1.37152388227034,493.2035436209917,31184.442671850877,-1469.8858019490817,-4845.927423288038,2.0410366026036935e-06,2.6812010744503303e-06,3.1412710357460385e-05,3.1018953108243164e-06,-1.4893545863605333e-06,3.140498543153152e-05,3.159292708119864e-05,31592.92708119864,0.995244099864137,0.04358779745146254,-0.08711594826517326,-0.00031169987809424963,0.001747092115332301,-0.0034897471056699785,-2.5043297947790288e-05,-0.008341237086117363,-0.17425665134308505,0.08826484230362434,-0.4779176809525257,-9.984170674041462,5.057202943385442,8.511921470214074e-06,1.2211058534306089e-06,3.040015024531228e-05,3.159292708119863e-05,1.0,1.1196383324115794e-16,0.0,5.213068774267505e-18,-2.89828010477547e-18,5.213068774267505e-18,0.0,8.330548684016938e-18,-2.89828010477547e-18,8.330548684016938e-18,-1.1102230246251565e-16
60.0,2026-01-01T12:01:00.000,6856068.187177278,-55679.23870428066,453471.0088535534,-506.16864746187406,-926.618705550293,7546.703744642979,6871274.053675757,7620.20776190239,1371031.087925391,6716618.207795735,470872.304735168,3.9539168843476173,78.46298251728768,493237.9333582755,0.06900886798206177,1.3694373858614186,493.2379333582755,31262.43776973859,-1415.7087094105764,-4002.0922527870125,1.7544857484211633e-06,1.5166367727151685e-06,3.146398864598594e-05,1.9051980955505974e-06,-1.4295670445527133e-06,3.145929985349343e-05,3.154934213244664e-05,31549.34213244664,0.9931538769698626,0.05228136641214085,-0.1044597273528107,-0.0004480481969742824,0.0017478677686445332,-0.0034893457268324857,-3.0055255750682614e-05,-0.012075518983465408,-0.20895967506001478,0.10645270015557236,-0.691876273182674,-11.972507469363935,6.099290436685938,8.406495819836376e-06,1.8290293907700883e-06,3.0353689537005963e-05,3.154934213244664e-05,1.0,2.7202869024460224e-16,-1.1102230246251565e-16,2.0896113716971146e-18,3.913653859123117e-18,2.0896113716971146e-18,2.220446049250313e-16,1.505345026294181e-18,3.913653859123117e-18,1.505345026294181e-18,-1.1102230246251565e-16
70.0,2026-01-01T12:01:10.000,6850585.425731677,-64941.81555409311,528908.6435341636,-590.3723807784903,-925.8776973465974,7540.66871712611,6871279.536437145,7620.201687611308,1383926.1310588024,6708262.978321657,546295.4743648755,4.588458039681121,78.34331750768729,493278.3204645493,0.08008370038204018,1.3673488374444611,493.27832046454927,31329.610356148012,-1361.8852281287,-3156.213644119258,1.463064664498228e-06,3.514281042859342e-07,3.148169056904332e-05,7.067596269382739e-07,-1.3668721974895664e-06,3.1480042124467004e-05,3.151762841542423e-05,31517.628415424228,0.9906854822822476,0.06096184829760314,-0.12176024763688072,-0.0006085579152576861,0.0017487844444840515,-0.003488871083522472,-3.5069011058550525e-05,-0.01654022300556944,-0.2435795218560378,0.12493954384903923,-0.9476849704243184,-13.956078578165558,7.1585085568396325,8.300037165342527e-06,2.440726075160889e-06,3.030698170740068e-05,3.1517628415424234e-05,1.0,1.1424898585174137e-16,-1.1102230246251565e-16,8.774594891976599e-18,-1.5987561804518058e-17,8.774594891976599e-18,0.0,5.553729743601061e-18,-1.5987561804518058e-17,5.553729743601061e-18,0.0
80.0,2026-01-01T12:01:20.000,6844260.982068442,-74196.41347005284,604281.2950133514,-674.5033623463439,-925.0229352651489,7533.707238621297,6871285.86088072,7620.194680835785,1396639.0796692611,6699068.446065297,621651.5245796276,5.222975692855835,78.22351576270928,493324.68683036487,0.09115812259196639,1.3652579025449605,493.32468683036484,31385.92957616554,-1308.3991106834483,-2308.758560123918,1.1669847241442407e-06,-8.13241658918992e-07,3.146578513782261e-05,-4.922265843436845e-07,-1.3012520358521756e-06,3.14671782293168e-05,3.149791817861513e-05,31497.91817861513,0.9878398490603464,0.06962706082874459,-0.13901034599669096,-0.000792915293679711,0.0017498421399819771,-0.0034883230324384293,-4.008486218678177e-05,-0.02176209024947728,-0.2781003704152773,0.1437813619786214,-1.246875924677849,-15.93397750582025,8.23806521401777,8.192694046133543e-06,3.055709785545234e-06,3.025989510159783e-05,3.149791817861513e-05,1.0,8.913464895253211e-17,0.0,1.3728004768496573e-17,-5.877859846862777e-17,1.3728004768496573e-17,0.0,1.8141418607306622e-17,-5.877859846862777e-17,1.8141418607306622e-17,0.0
90.0,2026-01-01T12:01:30.000,6837095.635548328,-83441.89543143801,679579.7030004624,-758.5512251402837,-924.054525266111,7525.820172104817,6871293.026227115,7620.18674244184,1409167.1559997178,6689036.005672914,696931.1971352783,5.857466586732327,78.10355798576926,493377.0116774599,0.10223207776403312,1.363164244373984,493.37701167745985,31431.3781906812,-1255.234402169605,-1460.1925135123706,8.664652649936152e-07,-1.9761933691178695e-06,3.141628890017011e-05,-1.6905694888533432e-06,-1.2326936722037834e-06,3.1420721689844076e-05,3.149030502228854e-05,31490.30502228854,0.9846180532901286,0.07827482122948393,-0.15620288082521466,-0.001000758988797577,0.0017510408516779495,-0.003487701408193814,-4.510310686333641e-05,-0.027772771857243233,-0.31250543296477035,0.16303713092587999,-1.591262612799746,-17.90524238378981,9.341339505974755,8.084606888388877e-06,3.673486699705343e-06,3.0212314332471688e-05,3.149030502228854e-05,1.0000000000000002,5.79213309358782e-17,0.0,1.4260923876958562e-17,3.4279485910888695e-17,1.4260923876958562e-17,0.0,1.729113022773632e-17,3.4279485910888695e-17,1.729113022773632e-17,0.0
100.0,2026-01-01T12:01:40.000,6829090.26915129,-92677.12554757505,754794.6164083466,-842.5056125607477,-922.9725873965489,7517.008495281559,6871301.031593334,7620.177873410631,1421507.6070926748,6678167.158620915,772125.2432541704,6.491927463347076,77.98342472854519,493435.27156929247,0.11330550903604997,1.3610675234942788,493.43527156929247,31465.952349882504,-1202.375447488311,-610.9787929889518,5.617330995310312e-07,-3.13625428397035e-06,3.133326545507905e-05,-2.887082899692162e-06,-1.1611893090574647e-06,3.134073309696211e-05,3.149484337691141e-05,31494.843376911413,0.981021313320017,0.08690294616339404,-0.1733307350804805,-0.0012316803366064857,0.0017523805754556575,-0.0034870060233006795,-5.012404214351349e-05,-0.03460918861679687,-0.34677677027986625,0.18276934708491996,-1.982960440114672,-19.868845370214014,10.47191221232759,7.975909370842668e-06,4.29355717604989e-06,3.016414089312466e-05,3.149484337691141e-05,1.0,1.1824661140514877e-16,-1.1102230246251565e-16,4.6225132213362105e-18,-5.039480137478302e-18,4.6225132213362105e-18,0.0,2.7953367307419474e-17,-5.039480137478302e-18,2.7953367307419474e-17,0.0
110.0,2026-01-01T12:01:50.000,6820245.869365744,-101900.96919863202,829916.7945000287,-926.3561797325009,-921.777255775022,7507.273300459531,6871309.875992882,7620.168074838327,1433657.7052842018,6666463.512993014,847224.4247715162,7.126355063734166,77.8630963715347,493499.44042296614,0.12437835952833154,1.3589673974809304,493.49944042296613,31489.66134535724,-1149.8068955073948,238.42228187315095,2.530220118358042e-07,-4.292260285067501e-06,3.1216824858295485e-05,-4.080587429042694e-06,-1.0867362024599604e-06,3.122731950646071e-05,3.151154824660921e-05,31511.548246609207,0.9770509894481125,0.0955092516733803,-0.1903868193281634,-0.0014852236735494143,0.001753861306469684,-0.0034862366681512598,-5.514796432419208e-05,-0.042313950042661454,-0.38089508575494074,0.20304460196968616,-2.424410751971911,-21.823680851031668,11.633598745776698,7.866730207555414e-06,4.91541761502402e-06,3.01152934305782e-05,3.151154824660921e-05,1.0,2.6012847306952526e-16,-1.1102230246251565e-16,-2.2252465900911932e-18,-5.3370629017924727e-17,-2.2252465900911932e-18,0.0,1.2851318079867405e-17,-5.3370629017924727e-17,1.2851318079867405e-17,2.220446049250313e-16
120.0,2026-01-01T12:02:00.000,6810563.526064829,-111112.29317624916,904937.0080340516,-1010.0925948018049,-920.4686785743716,7496.615794409684,6871319.558335873,7620.157347935975,1445614.7486935032,6653926.783243476,922219.515280418,7.760746127719527,77.74255310426622,493569.48952241783,0.1354505723401061,1.356863520575984,493.5694895224178,31502.527342342346,-1097.513700251001,1087.5540765327953,-5.942775758679588e-08,-5.443058029184285e-06,3.106712292406894e-05,-5.269913037985961e-06,-1.0093366028701184e-06,3.1080633765760555e-05,3.154039535400853e-05,31540.39535400853,0.9727085834612246,0.1040915531247799,-0.20736407477423988,-0.0017608866949926601,0.0017554830390636585,-0.003485393110997547,-6.017516885748218e-05,-0.050935836347054966,-0.41483949451824126,0.22393420543097728,-2.9184084486553057,-23.768552211235676,12.830484859810555,7.757194324948992e-06,5.538562346085052e-06,3.006570808131202e-05,3.154039535400853e-05,1.0000000000000002,6.508431704018834e-17,0.0,4.385297336469573e-18,3.701569406767228e-17,4.385297336469573e-18,0.0,-2.699243824209142e-17,3.701569406767228e-17,-2.699243824209142e-17,0.0
130.0,2026-01-01T12:02:10.000,6800044.432369709,-120309.96582398788,979846.040408342,-1093.7045402318372,-919.047018002705,7485.03729821104,6871330.07742917,7620.145694029336,1457376.0617106229,6640558.789946109,997101.3012753789,8.39509739368433,77.62177490509946,493645.3875330123,0.14652209054538617,1.3547555433358947,493.6453875330123,31504.585093502952,-1045.4811193299747,1935.9643277771838,-3.753700369938422e-07,-6.587507028237049e-06,3.0884360428076285e-05,-6.453900984789259e-06,-9.289976826136559e-07,3.090087371027134e-05,3.1581321547299185e-05,31581.321547299183,0.9679957381258323,0.11264766515226982,-0.2242554762865982,-0.002058120851239525,0.0017572457666797194,-0.0034844750979289023,-6.520595026372139e-05,-0.06053034627440625,-0.44858726304210195,0.24551486156480057,-3.4681333739889046,-25.702156915637335,14.066965375401743,7.647424547206743e-06,6.1624854851028404e-06,3.0015338430785356e-05,3.1581321547299185e-05,1.0,1.685734018734783e-17,0.0,-8.393298956759516e-19,-1.350038446771586e-18,-8.393298956759516e-19,0.0,-1.1813461838701188e-17,-1.350038446771586e-18,-1.1813461838701188e-17,0.0
140.0,2026-01-01T12:02:20.000,6788689.8844999485,-129492.8571775811,1054634.6888024579,-1177.1817140961957,-917.5124502825823,7472.539247081174,6871341.431976539,7620.133114558726,1468938.9954795346,6626361.459529451,1071860.5832941611,9.029405598294261,77.50074152059305,493727.10051741166,0.15759285718824334,1.3526431122714255,493.72710051741166,31495.88163549677,-993.694709876504,2783.2058000873935,-6.945532566846137e-07,-7.72448165421653e-06,3.066878221655697e-05,-7.631405763654863e-06,-8.457314553467621e-07,3.068828127271166e-05,3.163422550177533e-05,31634.22550177533,0.9629142366311111,0.1211754016109869,-0.241054035404526,-0.002376331781155117,0.0017591494817592837,-0.003483482352847729,-7.024060204375288e-05,-0.0711603127684079,-0.48211351411034115,0.26786940070588827,-4.077185590460676,-27.62306960474341,15.347786121146072,7.537543208840616e-06,6.786682763505555e-06,2.9964155294944828e-05,3.1634225501775336e-05,1.0,1.1826002380021373e-16,-1.1102230246251565e-16,-1.6456657359948104e-17,2.362381728651258e-17,-1.6456657359948104e-17,0.0,9.13497632804115e-19,2.362381728651258e-17,9.13497632804115e-19,0.0
150.0,2026-01-01T12:02:30.000,6776501.281610938,-138659.8391049661,1129293.7653180636,-1260.5138313703058,-915.8651656284028,7459.123190192049,6871353.6205788115,7620.119611078831,1480300.928376552,6611336.823998278,1146488.1770578404,9.663667476191312,77.37943244439433,493814.59195276076,0.16866281527742913,1.350525869479205,493.81459195276074,31476.47596945378,-942.1403223002864,3628.8369117904185,-1.0167209884098854e-06,-8.852873065676857e-06,3.0420676226698484e-05,-8.80129734713585e-06,-7.595546745055956e-07,3.0443141543335903e-05,3.169896883691721e-05,31698.968836917207,0.957466001984122,0.12967257553225853,-0.25775280333517087,-0.00271487978236522,0.0017611941756349738,-0.003482414577443334,-7.52794165904121e-05,-0.08289658660074348,-0.5153908913682748,0.29108756890017073,-4.749624548263332,-29.529722874887636,16.67808916670334,7.427673424944532e-06,7.410653364567357e-06,2.9912146521546182e-05,3.169896883691721e-05,1.0000000000000002,2.2642028827057796e-16,0.0,1.777269733903219e-17,-1.1248081432034385e-17,1.777269733903219e-17,2.220446049250313e-16,-2.3211679721697784e-17,-1.1248081432034385e-17,-2.3211679721697784e-17,0.0
160.0,2026-01-01T12:02:40.000,6763480.125618428,-147809.78544608224,1203814.0981174922,-1343.690625220567,-914.1053682220004,7444.7907904712565,6871366.641734052,7620.105185258505,1491459.2664868091,6595487.020640849,1220974.9146089144,10.297879759644424,77.25782689557894,493907.8227491918,0.17973190778027748,1.3484034522636819,493.9078227491918,31446.438726394936,-890.8040922366606,4472.42233073616,-1.3416124889174252e-06,-9.971591052643077e-06,3.014037242332207e-05,-9.962462786739315e-06,-6.704887253706306e-07,3.0165781641997336e-05,3.177537729092573e-05,31775.377290925728,0.9516530963573071,0.13813699908418092,-0.27434487393596113,-0.0030730803160012622,0.0017633798384134366,-0.0034812714511641687,-8.03226850991486e-05,-0.09581878504064996,-0.5483891770249346,0.3152668730588918,-5.490011980900511,-31.420385374181325,18.06346124656118,7.317940782526929e-06,8.033901666306134e-06,2.9859316279851938e-05,3.177537729092573e-05,1.0,1.2082407709802107e-16,0.0,-4.447246141795752e-18,-7.240547293485598e-17,-4.447246141795752e-18,0.0,-4.513200963981542e-17,-7.240547293485598e-17,-4.513200963981542e-17,0.0
170.0,2026-01-01T12:02:50.000,6749628.021010194,-156941.57215241616,1278186.5325602489,-1426.7018482910576,-912.2332761864486,7429.543824388671,6871380.493837759,7620.0898388805645,1502411.4440747737,6578814.29172277,1295311.6454473194,10.932039178155545,77.13590379642523,494006.7512696029,0.19080007761582923,1.346275492749214,494.0067512696029,31405.851818534295,-839.672431107813,5313.53353924842,-1.6689632456006033e-06,-1.1079565797071094e-05,2.9828241656946877e-05,-1.1113808289534048e-05,-5.785595092805503e-07,2.9856569647401722e-05,3.186324241053387e-05,31863.24241053387,0.9454777203886032,0.14656648353758522,-0.29082338668124963,-0.0034502045512866996,0.0017657064588496771,-0.0034800526311881946,-8.537069747775294e-05,-0.1100160978802139,-0.5810748556488199,0.34051347509630303,-6.303458087034419,-33.29313680985092,19.509984990351228,7.208474550492478e-06,8.655938998138785e-06,2.98056845522435e-05,3.186324241053387e-05,1.0,1.1651560866767652e-16,-1.1102230246251565e-16,1.466371222152055e-17,2.0139826247336337e-17,1.466371222152055e-17,0.0,-2.0810219056857977e-18,2.0139826247336337e-17,-2.0810219056857977e-18,0.0
180.0,2026-01-01T12:03:00.000,6734946.674644824,-166054.0774262754,1352401.932337304,-1509.537273987634,-910.249121558079,7413.384181728559,6871395.175183053,7620.073573841561,1513154.9240537789,6561320.984166426,1369489.2376642039,11.56614245801715,77.01364174952805,494111.33335072256,0.2018672676471093,1.3441416174806307,494.1113333507226,31354.80807733621,-788.7320157669685,6151.7493681006745,-1.998505522198118e-06,-1.2175749546251158e-05,2.9484694448339116e-05,-1.2254260695192533e-05,-4.837973134517202e-07,2.9515913366698763e-05,3.196232323997601e-05,31962.32323997601,0.9389422124342063,0.1549588392377965,-0.30718152961274414,-0.003845479945031598,0.0017681740242122808,-0.0034787577523917416,-9.04237422550913e-05,-0.12558813587967688,-0.6134106164956552,0.3669431210086234,-7.1956701428209895,-35.14583943371896,21.024292155152374,7.0994092335103595e-06,9.276285298531365e-06,2.975128613173066e-05,3.196232323997601e-05,1.0,2.3245011388710875e-16,0.0,3.6929213123118625e-17,-9.927596393500033e-18,3.6929213123118625e-17,0.0,-3.003831691129418e-17,-9.927596393500033e-18,-3.003831691129418e-17,2.220446049250313e-16
190.0,2026-01-01T12:03:10.000,6719437.895537701,-175146.1818597739,1426451.1806030397,-1592.1866977592451,-908.1531502567163,7396.313865347169,6871410.683960899,7620.056392151535,1523687.198447943,6543009.549217482,1443498.579073323,12.20018632181747,76.8910190142549,494221.52232544305,0.21293342067249138,1.3420014470123127,494.22152232544306,31293.410879163494,-737.969777738929,6986.656499261642,-2.329968902453546e-06,-1.3259118196802826e-05,2.9110179704709674e-05,-1.3382769466177166e-05,-3.86236665216281e-07,2.9144259050300187e-05,3.207234841631348e-05,32072.34841631348,0.9320490477742404,0.16331187558243607,-0.32341254227244887,-0.0042580908574219745,0.0017707825201397052,-0.003477386427316839,-9.548210648879618e-05,-0.1426457960682225,-0.6453547865473388,0.394682080115653,-8.173002079992981,-36.97610555772863,22.613617440071145,6.990885548639398e-06,9.894470766489792e-06,2.9696169794003895e-05,3.207234841631348e-05,1.0,1.2392038193728195e-16,0.0,2.8340199172542272e-18,-3.781656797956483e-17,2.8340199172542272e-18,0.0,-8.776686450894791e-18,-3.781656797956483e-17,-8.776686450894791e-18,-1.1102230246251565e-16
200.0,2026-01-01T12:03:20.000,6703103.594634175,-184216.76857351052,1500325.181104694,-1674.6399383762932,-905.9456220541388,7378.334990915854,6871427.018260334,7620.038295933773,1534005.7888518278,6523882.542097297,1517330.5783399004,12.834167487889285,76.76801348244108,494337.26904640155,0.2239984794160775,1.3398545954839949,494.33726904640156,31221.773759320484,-687.3728926089886,7817.84993715276,-2.663080829645857e-06,-1.432867278716345e-05,2.8705183372776084e-05,-1.4498307826924484e-05,-2.8591620150657154e-07,2.874209001669638e-05,3.219301813198666e-05,32193.018131986657,0.9248008377714979,0.17162340100566262,-0.33950971861715523,-0.004687179203447616,0.0017735319304875055,-0.0034759382461371406,-0.00010054607567184184,-0.16131210300725962,-0.6768606866495894,0.4238680542763556,-9.242502686695572,-38.78126066334838,24.285850580457282,6.883051925712428e-06,1.051003735332404e-05,2.964039688442281e-05,3.219301813198666e-05,1.0,2.7389708921622543e-16,0.0,7.700433094405697e-18,1.0410467440281467e-16,7.700433094405697e-18,2.220446049250313e-16,-4.428119860670428e-17,1.0410467440281467e-16,-4.428119860670428e-17,0.0
210.0,2026-01-01T12:03:30.000,6685945.7845699685,-193264.72335492354,1574014.859309171,-1756.886839205878,-903.6268105407614,7359.449786649732,6871444.1760687,7620.0192874245195,1544108.2468868191,6503942.621641478,1590976.1661068192,13.468082669698113,76.64460265327229,494458.5219107936,0.23506238651702,1.3377006701823833,494.4585219107936,31140.020015295595,-636.9287701433159,8644.93344815504,-2.997567139891319e-06,-1.5383440896733465e-05,2.8270227033980973e-05,-1.5599874432251547e-05,-1.8287850802569455e-07,2.830992533120137e-05,3.232400654480986e-05,32324.006544809858,0.9172003289834868,0.1798912229692496,-0.35546640991333023,-0.005131845139875447,0.0017764222371664667,-0.0034744127766225584,-0.00010561593363794247,-0.18172296349839795,-0.707875904123811,0.4546509951890354,-10.411958849068116,-40.558301725301675,26.049583175754425,6.776065456421698e-06,1.1122540286747839e-05,2.9584040184005808e-05,3.232400654480986e-05,1.0000000000000002,3.4015042778305886e-16,2.220446049250313e-16,2.4734372407473603e-17,4.0612078015832205e-17,2.4734372407473603e-17,0.0,7.928568676015921e-17,4.0612078015832205e-17,7.928568676015921e-17,2.220446049250313e-16
220.0,2026-01-01T12:03:40.000,6667966.5794188455,-202288.93479630316,1647511.1635270587,-1838.9172694837405,-901.1970030905544,7339.660593021972,6871462.155271901,7619.999368972715,1553992.1546504227,6483192.549925527,1664426.2961179924,14.101928575165388,76.52076360732563,494585.226886425,0.24612508451770868,1.3355392710880856,494.585226886425,31048.28230002425,-586.625045747571,9467.519968104545,-3.3331525871181935e-06,-1.6422477950114236e-05,2.7805866447240136e-05,-1.668649486629099e-05,-7.716997043573452e-08,2.7848318268924275e-05,3.246496413881269e-05,32464.96413881269,0.9092504022280345,0.1881131479609125,-0.37127602761127676,-0.005591147787697481,0.001779453419971612,-0.003472809564102689,-0.00011069196246571122,-0.20402774231582643,-0.7383414774667603,0.48719373791825693,-11.689928538279567,-42.303850498298935,27.914144987918863,6.670092716791398e-06,1.1731549450476685e-05,2.9527182513318485e-05,3.24649641388127e-05,1.0000000000000002,3.9407240383873864e-16,2.220446049250313e-16,4.73612949868965e-17,-3.724028008003895e-17,4.73612949868965e-17,2.220446049250313e-16,-7.8031497406833e-18,-3.724028008003895e-17,-7.8031497406833e-18,2.220446049250313e-16
230.0,2026-01-01T12:03:50.000,6649168.194427588,-211288.2944324442,1720805.0660337228,-1920.721125582747,-898.6565008241952,7318.9698624636885,6871480.953654673,7619.978543039684,1563655.1251649118,6461635.191876098,1737671.9463387746,14.735701905922006,76.396472979646,494717.32753896376,0.2571865158507427,1.3333699904057057,494.71732753896373,30946.702206020003,-536.4495738846015,10285.231977527978,-3.6695613576642368e-06,-1.7444868425154363e-05,2.731269004467261e-05,-1.7757222714073376e-05,3.1159391668174804e-08,2.7357854869288936e-05,3.261552011656366e-05,32615.52011656366,0.9009540716026947,0.19628698150031454,-0.3869320461974737,-0.006064105989983232,0.001782625456402057,-0.0034711281314291327,-0.00011577444238151873,-0.228389526123464,-0.7681909929082148,0.5216723183132396,-13.085755931867348,-44.01410175360486,29.88962212815387,6.565310803952615e-06,1.233665069530821e-05,2.9469915102412892e-05,3.261552011656366e-05,1.0,5.1559868447956615e-17,0.0,-2.2553848492096633e-17,-1.559010867708141e-17,-2.2553848492096633e-17,0.0,2.4030864462553932e-17,-1.559010867708141e-17,2.4030864462553932e-17,0.0
240.0,2026-01-01T12:04:00.000,6629552.945738285,-220261.69687792158,1793887.564187325,-2002.2883322777432,-896.0056185704645,7297.380159049537,6871500.568900846,7619.956812198824,1573094.8028176452,6439273.514869705,1810704.1200732694,15.369399356487468,76.27170693185552,494854.76506037504,0.26824662282460404,1.331192412077061,494.85476506037503,30835.42984127621,-486.3904240769877,11097.70184439043,-4.00651757245785e-06,-1.8449726963826866e-05,2.6791317385856832e-05,-1.8811140722264272e-05,1.4205607905393494e-07,2.6839152360823287e-05,3.277528481416922e-05,32775.28481416922,0.8923144834582071,0.20441052815319616,-0.40242800602403117,-0.006549699105067334,0.0017859383214716864,-0.003469367978936811,-0.0001208636516609889,-0.2549848895765497,-0.7973495995975918,0.5582757887706161,-14.609558012345634,-45.68476685338809,31.986846500893343,6.461908037570001e-06,1.2937447030956263e-05,2.9412335906641297e-05,3.277528481416923e-05,1.0000000000000002,9.009675715557955e-17,0.0,5.2079780639269905e-17,9.030957459627278e-18,5.2079780639269905e-17,0.0,3.5564744915487126e-17,9.030957459627278e-18,3.5564744915487126e-17,0.0
250.0,2026-01-01T12:04:10.000,6609123.250098013,-229208.03996397118,1866749.6815436285,-2083.6088440066032,-893.2446848258894,7274.894158169031,6871520.998593651,7619.9341791352845,1582308.8637996519,6416110.5883173905,1883513.8470783846,16.003017613369497,76.14644112316455,494997.4782985623,0.2793053476079427,1.3290061112752305,494.99747829856227,30714.623397892403,-436.4358801133896,11904.57213416187,-4.3437457748386395e-06,-1.9436199385268395e-05,2.624239757623029e-05,-1.9847362070342324e-05,2.5546328078531704e-07,2.629285760237205e-05,3.294385228745579e-05,32943.85228745579,0.8833349153261714,0.21248159155384067,-0.41775751611453504,-0.0070468678337708935,0.0017893919875104562,-0.0034675285844044594,-0.00012595986652905885,-0.2840029101224025,-0.8257329612644749,0.5972052792658946,-16.272168119446906,-47.3110136852939,34.217342004867454,6.360084420536899e-06,1.3533559782391448e-05,2.935454801760346e-05,3.294385228745579e-05,1.0000000000000002,3.568539039196903e-16,2.220446049250313e-16,1.1767370365356843e-16,2.033023020914624e-17,1.1767370365356843e-16,0.0,1.0398509659745177e-17,2.033023020914624e-17,1.0398509659745177e-17,2.220446049250313e-16
260.0,2026-01-01T12:04:20.000,6587881.624555917,-238126.22487495802,1939382.4689674412,-2164.6726461273133,-890.3740417126388,7251.514646183638,6871542.240216018,7619.910646645625,1591295.0165386936,6392149.583236254,1956092.184674504,16.636553354078917,76.02065068023926,495145.4037881252,0.2903626322123831,1.326810653878642,495.1454037881252,30584.4487144548,-386.5744430607714,12705.495887058909,-4.680971402131242e-06,-2.0403463600653785e-05,2.566660765532602e-05,-2.086503114230979e-05,3.7132102574575e-07,2.5719645478755216e-05,3.312080263862233e-05,33120.80263862233,0.8740187748011855,0.22049797443571245,-0.43291425694554575,-0.007554515078330548,0.0017929864239560136,-0.0034656094030145962,-0.0001310633610585243,-0.3156430964840263,-0.8532461788779172,0.6386719690080987,-18.085017260975338,-48.88740493536914,36.59320831747417,6.260052233015602e-06,1.4124629567307345e-05,2.9296657711295937e-05,3.3120802638622336e-05,1.0000000000000002,3.9541087878914475e-16,2.220446049250313e-16,1.6538136696422297e-16,-1.550639780453826e-18,1.6538136696422297e-16,0.0,3.895733478313068e-17,-1.550639780453826e-18,3.895733478313068e-17,2.220446049250313e-16
270.0,2026-01-01T12:04:30.000,6565830.686147737,-247015.15628441505,2011777.0057405636,-2245.469756170926,-887.39404493468,7227.244520069695,6871564.291150884,7619.886217637458,1600051.002126768,6367393.771807944,2028430.2188526217,17.270003246054113,75.89431016584396,495298.4757822894,0.30141841847375267,1.3246055959237808,495.2984757822894,30445.078833273677,-336.7948386554445,13500.136862382169,-5.017921239196345e-06,-2.135073042992886e-05,2.5064650960593405e-05,-2.186332459571001e-05,4.895663546567219e-07,2.512021722424991e-05,3.330570448116196e-05,33305.704481161956,0.8643695983780552,0.22845747867196467,-0.4478919832012609,-0.008071506838853574,0.0017967215971363246,-0.0034636098673126894,-0.00013617440706705463,-0.35011180448497814,-0.8797827428519114,0.682893542702809,-20.059928754698696,-50.407838053857915,39.126917853607814,6.162036172718508e-06,1.4710317228384172e-05,2.923877268684348e-05,3.330570448116196e-05,1.0000000000000002,2.306354743770342e-16,0.0,9.344093965035641e-18,-1.915408487664982e-17,9.344093965035641e-18,2.220446049250313e-16,-3.8603972242683274e-17,-1.915408487664982e-17,-3.8603972242683274e-17,0.0
280.0,2026-01-01T12:04:40.000,6542973.151567834,-255873.74249063473,2083924.4006660937,-2325.9902250901987,-884.3050637321999,7202.086787047194,6871587.148681534,7619.86089512908,1608574.5947456018,6341846.526923259,2100519.0653778086,17.903363945489335,75.76739354613878,495456.6262859418,0.3124726480316315,1.3223904830344237,495.4566262859418,30296.693553657162,-287.0860296047703,14288.169749950348,-5.354323852320589e-06,-2.2277244320789386e-05,2.4437255472583867e-05,-2.2841451891363932e-05,6.101334684395364e-07,2.4495298828819547e-05,3.3498117142131604e-05,33498.1171421316,0.8543910502440208,0.2363579053252701,-0.4626845265016618,-0.00859667314153955,0.0018005974700425673,-0.003461529387166031,-0.00014129327401257838,-0.38761662415644255,-0.9052236064097152,0.7300886156742281,-22.208796633272833,-51.86549216288826,41.83099634868207,6.066273708863593e-06,1.529030460058915e-05,2.918099999277482e-05,3.349811714213161e-05,1.0,2.233887564286834e-16,0.0,-4.400748419921636e-18,3.0094595350514687e-18,-4.400748419921636e-18,0.0,-1.6460301572925433e-17,3.0094595350514687e-18,-1.6460301572925433e-17,2.220446049250313e-16
290.0,2026-01-01T12:04:50.000,6519311.836828742,-264700.8955517959,2155815.793168947,-2406.2241385037787,-881.107480834299,7176.0445641945225,6871610.809991929,7619.834682249096,1616863.6020837019,6315511.321714497,2172349.8708888576,18.536632096060423,75.63987415659703,495619.78508977103,0.3235252623071122,1.320164849826787,495.619785089771,30139.47898248762,-237.43723328039044,15069.280348728757,-5.68991000191934e-06,-2.318228397068585e-05,2.3785172147299752e-05,-2.37986563473986e-05,7.329538907092342e-07,2.3845639331196104e-05,3.3697593095961143e-05,33697.59309596114,0.8440869210264568,0.2441970547075176,-0.4772857981026539,-0.009128809000227167,0.0018046140020924948,-0.0034593673497223297,-0.00014642022888699114,-0.4283581573531449,-0.9294365147355451,0.7804685473464201,-24.543114536336013,-53.252789619695484,44.71755380565614,5.9730148295233805e-06,1.5864295258847837e-05,2.912344434038254e-05,3.3697593095961143e-05,1.0000000000000002,2.4775074067115206e-16,2.220446049250313e-16,5.0022640071762815e-17,-3.882174984104087e-17,5.0022640071762815e-17,0.0,-4.504351987718214e-17,-3.882174984104087e-17,-4.504351987718214e-17,0.0
300.0,2026-01-01T12:05:00.000,6494849.656908318,-273495.53142060956,2227442.354392457,-2486.161617935749,-877.8016924099647,7149.1210780491565,6871635.272167066,7619.807582236012,1624915.8657514455,6288391.729074038,2243913.813993984,19.169804327541485,75.5117246663859,495787.87980550394,0.33457620247865644,1.3179282192878508,495.78787980550396,29973.627083433552,-187.83794521868532,15843.16571286078,-6.024413032734408e-06,-2.4065162853012706e-05,2.3109173241476423e-05,-2.4734215245011828e-05,8.579565932072681e-07,2.3172009155119243e-05,3.390367976470007e-05,33903.67976470007,0.8334611264962786,0.25197272644966845,-0.4916897915673925,-0.009666675410355052,0.0018087711488841004,-0.003457123119368231,-0.0001515555361081125,-0.47251860573892324,-0.95227577661415,0.8342260631976113,-27.073321850246423,-54.561382932533576,47.797632581037014,5.882522185034009e-06,1.6432014975215747e-05,2.906620577550847e-05,3.390367976470008e-05,1.0000000000000004,5.239842168761373e-16,2.220446049250313e-16,1.1633055652553477e-16,-9.232322395745738e-18,1.1633055652553477e-16,0.0,2.0054405214483486e-17,-9.232322395745738e-18,2.0054405214483486e-17,4.440892098500626e-16
310.0,2026-01-01T12:05:10.000,6469589.625384501,-282256.5700784651,2298795.2882909095,-2565.7928220503804,-874.3881080173312,7121.319664194421,6871660.532193344,7619.77959843784,1632729.2616890506,6260491.421160407,2315202.1063624197,19.802877254305702,75.38291704115113,495960.8359021639,0.34562540945592896,1.315680102125829,495.96083590216386,29799.33522621,-138.2779687715472,16609.53426543811,-6.357569240355358e-06,-2.4925229649052683e-05,2.2410050636522967e-05,-2.5647440937255414e-05,9.850681752330041e-07,2.247519843841543e-05,3.411592195421389e-05,34115.92195421389,0.8225177062274229,0.25968271958219896,-0.5058905854076684,-0.010209000375080966,0.0018130688619395292,-0.003454796037687935,-0.0001566994574098352,-0.52024671641117,-0.9735827217433555,0.8915202326883389,-29.807941155899467,-55.78218096275388,51.080346683562915,5.795070448462172e-06,1.699321234135732e-05,2.9009378200935555e-05,3.411592195421389e-05,1.0000000000000002,2.9294061647088857e-16,2.220446049250313e-16,9.569769340788287e-17,9.46932479169454e-17,9.569769340788287e-17,0.0,1.141662718872181e-17,9.46932479169454e-17,1.141662718872181e-17,0.0
320.0,2026-01-01T12:05:20.000,6443534.854057761,-290982.9356690612,2369865.8327178815,-2645.1079478819183,-870.8671505512317,7092.643766832343,6871686.586958937,7619.750734311655,1640301.7005725782,6231814.1688906895,2386205.99381179,20.435847473702616,75.25342250404717,496138.57674341823,0.356672823851476,1.3134199960900188,496.13857674341824,29616.805737353,-88.7474511648411,17368.105880479976,-6.689118213131859e-06,-2.576186858763115e-05,2.168861416674952e-05,-2.6537680443073973e-05,1.1142129643069148e-06,2.1756015356104798e-05,3.43338631383596e-05,34333.8631383596,0.8112608222127637,0.2673248326265771,-0.5198823456942554,-0.010754479963330572,0.0018175070884391955,-0.003452385423422083,-0.00016185225173041078,-0.5716389667305944,-0.9931871370761335,0.952457684943317,-32.75250019888234,-56.905431221143616,54.57180551205312,5.7109462973434815e-06,1.754765888976844e-05,2.8953046780620473e-05,3.43338631383596e-05,0.9999999999999998,2.8706093909487244e-16,-1.1102230246251565e-16,-9.463258829637259e-17,-3.7829766779778827e-17,-9.463258829637259e-17,0.0,8.332133796618218e-19,-3.7829766779778827e-17,8.332133796618218e-19,-2.220446049250313e-16
330.0,2026-01-01T12:05:30.000,6416688.552561268,-299673.55663150345,2440645.2605102295,-2724.0972320592555,-867.2392561890535,7063.096938342668,6871713.433254186,7619.720993423172,1647631.1282103872,6202363.841421191,2456916.7573911003,21.06871156430419,75.12321149496222,496321.02362591587,0.36771838595011314,1.3111473852591422,496.32102362591587,29426.245454035256,-39.236926131118366,18118.611933744898,-7.01880314871459e-06,-2.657449969485231e-05,2.0945689957388237e-05,-2.7404316640681716e-05,1.2453131615573284e-06,2.1015284504542708e-05,3.45570478805694e-05,34557.0478805694,0.7996947574368348,0.27489686369823774,-0.5336593286351494,-0.011301779399548023,0.0018220857709460598,-0.003449890572427078,-0.00016701417509881378,-0.6267174936373573,-1.0109100002529212,1.0170705676657426,-35.908267332437596,-57.92087648206137,58.27385099422186,5.630447417906401e-06,1.8095149563636404e-05,2.8897286764742917e-05,3.45570478805694e-05,1.0000000000000002,8.423138487522878e-17,0.0,-7.150649396804026e-18,-4.771797207218075e-17,-7.150649396804026e-18,0.0,3.491885527221681e-17,-4.771797207218075e-17,3.491885527221681e-17,0.0
340.0,2026-01-01T12:05:40.000,6389054.027958851,-308327.365832852,2511124.8805676065,-2802.75095202531,-863.5048743349012,7032.68283882811,6871741.067772003,7619.690379446289,1654715.5259388932,6172144.4056141665,2527325.714459227,21.70146608401145,74.99225362772982,496508.0958186142,0.3787620356758802,1.3088617392945474,496.50809581861415,29227.865282473995,10.262636820678779,18860.79532314959,-7.346371144757676e-06,-2.7362578956649264e-05,2.018211877773271e-05,-2.8246767739195816e-05,1.3782889607612232e-06,2.025384514014172e-05,3.47850227990765e-05,34785.022799076505,0.7878239144057152,0.2823966106215372,-0.5472158831206606,-0.01184953418492169,0.0018268048471200195,-0.003447310757635005,-0.0001721854805191296,-0.6854062309789748,-1.026567799255199,1.085292712993455,-39.27088428706411,-58.81800228135603,62.18269199082794,5.553882049854496e-06,1.863550258828408e-05,2.884216095563288e-05,3.478502279907651e-05,1.0000000000000004,4.0016348327451773e-16,2.220446049250313e-16,7.603125266987108e-17,2.093533393790948e-18,7.603125266987108e-17,2.220446049250313e-16,1.801561944833068e-17,2.093533393790948e-18,1.801561944833068e-17,2.220446049250313e-16
350.0,2026-01-01T12:05:50.000,6360634.684330779,-316943.3007001028,2581296.0389273628,-2881.059427250971,-859.664467562077,7001.40523564589,6871769.4871082865,7619.65889616262,1661552.9110102598,6141159.925492611,2597424.2197587574,22.33410756801244,74.86051764525799,496699.71060311963,0.38980371255640045,1.3065625126570644,496.6997106031196,29021.879762514054,59.75977653976247,19594.41045973407,-7.67157346349167e-06,-2.812559839727415e-05,1.939875441451721e-05,-2.9064487926235865e-05,1.5130586478417678e-06,1.9472549700631462e-05,3.5017338515793596e-05,35017.3385157936,0.7756528136343864,0.2898218710570684,-0.5605464532344641,-0.012396351249572946,0.0018316642494223307,-0.0034446452290143497,-0.00017736641785290368,-0.7475079516506553,-1.0399786116327556,1.1569367072701155,-42.829050782051745,-59.58638523043184,66.28759049034001,5.481568025113299e-06,1.9168559656694926e-05,2.8787718377868453e-05,3.50173385157936e-05,1.0000000000000004,5.085952523629966e-16,2.220446049250313e-16,4.9726684950552777e-17,-5.35917804322197e-17,4.9726684950552777e-17,0.0,-2.7022708899002376e-17,-5.35917804322197e-17,-2.7022708899002376e-17,4.440892098500626e-16
360.0,2026-01-01T12:06:00.000,6331434.022347432,-325520.30335158465,2651150.119834687,-2959.013020443421,-855.7185115538862,6969.268002925635,6871798.687762336,7619.626547461021,1668141.3369757002,6109414.561682144,2667203.666485042,22.966632526582472,74.72797137239594,496895.78331492335,0.40084335568448826,1.3042491437843748,496.89578331492334,28808.506639968233,109.26247792756692,20319.22323027666,-7.994165770169752e-06,-2.8863086077191386e-05,1.859646207039604e-05,-2.9856966969947964e-05,1.6495387270325977e-06,1.8672262091853808e-05,3.5253550548610345e-05,35253.55054861034,0.7631860920915577,0.2971704426401247,-0.5736455807310203,-0.012940810131488775,0.0018366639048094974,-0.003441893213532039,-0.0001825572336993394,-0.8126861767209548,-1.0509698874680116,1.2316758270694825,-46.563487994733684,-60.216138947256134,70.56982661936638,5.413831871364352e-06,1.9694185655359875e-05,2.8733992102112123e-05,3.5253550548610345e-05,1.0000000000000004,3.6630507819701056e-16,2.220446049250313e-16,1.1777651249378974e-16,-5.512669941333706e-17,1.1777651249378974e-16,0.0,2.959119289142542e-17,-5.512669941333706e-17,2.959119289142542e-17,2.220446049250313e-16
370.0,2026-01-01T12:06:10.000,6301455.638830924,-334057.32072775654,2720678.54680787,-3036.602138748715,-851.6674950427762,6936.275121073711,6871828.666137307,7619.5933373370935,1674478.894064289,6076912.570840145,2736655.4873503344,23.59903744271629,74.59458166638358,497096.22738560534,0.411880903676822,1.3019210542261916,497.09622738560535,28587.966448282285,158.7781034606594,21035.01093282124,-8.31390834562461e-06,-2.9574606014159046e-05,1.777611679208883e-05,-3.062373053072962e-05,1.7876439801568755e-06,1.7853856133990165e-05,3.5493220781886656e-05,35493.22078188666,0.7504285016032045,0.30444012313300844,-0.5865079074758324,-0.01348146418785196,0.0018418037344173747,-0.0034390539151165442,-0.00018775817127338203,-0.8804567450381626,-1.0593875379184858,1.309035635117158,-50.4464555345127,-60.6984347914847,75.00221712444036,5.351007601192112e-06,2.021226851605988e-05,2.86809979003247e-05,3.5493220781886656e-05,1.0000000000000004,6.630412684854257e-16,4.440892098500626e-16,1.4845396295593962e-16,1.8764550867549968e-17,1.4845396295593962e-16,0.0,-1.4350890757855444e-17,1.8764550867549968e-17,-1.4350890757855444e-17,4.440892098500626e-16
380.0,2026-01-01T12:06:20.000,6270703.226304732,-342553.3047213878,2789872.78369853,-3113.817234948414,-847.5119197478201,6902.430676264056,6871859.418540655,7619.559269892681,1680563.7095537554,6043658.3050731225,2805771.15564287,24.231318769581282,74.46031436474846,497300.9543859297,0.4229162946294946,1.2995776477348906,497.3009543859297,28360.482101063957,208.31331892713337,21741.56218654476,-8.630566273408863e-06,-3.025975803158584e-05,1.6938601932425778e-05,-3.1364339890853865e-05,1.9272875900996804e-06,1.7018214122324054e-05,3.5735918431701584e-05,35735.91843170158,0.7373849072145744,0.3116287105908187,-0.5991281778489647,-0.014016841835331181,0.0018470836532349518,-0.003436126514622507,-0.00019296947028157708,-0.9501936252323999,-1.0651055257954103,1.3883998181747543,-54.442084446051965,-61.02605136413944,79.54944985814431,5.293435642283556e-06,2.0722718916460247e-05,2.862873252464405e-05,3.5735918431701584e-05,1.0000000000000002,7.677417594687157e-17,0.0,-6.674275297547961e-18,-1.4865823676209823e-17,-6.674275297547961e-18,0.0,5.178415184050982e-17,-1.4865823676209823e-17,5.178415184050982e-17,0.0
390.0,2026-01-01T12:06:30.000,6239180.572531368,-351007.212307105,2858724.335746694,-3190.6488086501586,-843.2523003105484,6867.738859915581,6871890.94118459,7619.524349335349,1686393.9481392715,6009656.211340737,2874542.186280761,24.8634729277805,74.32513423041493,497509.8740698066,0.43394946607024404,1.2972183093074823,497.5098740698066,28126.27849695622,257.8740138786822,22438.67681753899,-8.943909602283088e-06,-3.0918177538482326e-05,1.6084807650152764e-05,-3.2078391807269206e-05,2.068381177833561e-06,1.6166225140685663e-05,3.598122089280503e-05,35981.22089280503,0.7240602855112622,0.3187340035406324,-0.6115012411108197,-0.014545447818370218,0.0018525035697677964,-0.003433110169797137,-0.00019819136679566422,-1.0211518074929458,-1.0680347957597567,1.4690331044072855,-58.5076888115013,-61.19388617015093,84.16939684753868,5.241461368450925e-06,2.122546973802369e-05,2.8577172254443e-05,3.598122089280504e-05,1.0000000000000004,7.193883186199875e-16,4.440892098500626e-16,2.3372170787764543e-16,5.330507445957567e-18,2.3372170787764543e-16,0.0,-8.300782574744702e-17,5.330507445957567e-18,-8.300782574744702e-17,4.440892098500626e-16
400.0,2026-01-01T12:06:40.000,6206891.560038208,-359418.0056702887,2927224.7506305706,-3267.087407472,-838.8891642291441,6832.203968156228,6871923.230186565,7619.488579977851,1691967.812294094,5974910.830848285,2942960.1368605597,25.495496302412615,74.18900489388969,497722.8944191321,0.44498035490714005,1.2948424041765614,497.7228944191321,27885.582138272708,307.465217410219,23126.16572222773,-9.253713484995887e-06,-3.1549535245559794e-05,1.5215629450962516e-05,-3.2765518278039635e-05,2.2108349062659246e-06,1.5298783837056963e-05,3.62287146598428e-05,36228.7146598428,0.7104597228996677,0.3257538011745318,-0.623622053729292,-0.015065764505360662,0.0018580633856910749,-0.0034300040152485923,-0.00020342409312383783,-1.0925068471089632,-1.0681302161099722,1.5501208323584459,-62.59603142848789,-61.19935335349794,88.81538142944517,5.195433888165444e-06,2.1720475684160683e-05,2.8526271552234005e-05,3.62287146598428e-05,1.0000000000000002,3.152914559663644e-16,2.220446049250313e-16,4.6971204736254107e-17,6.282897755078557e-17,4.6971204736254107e-17,-1.1102230246251565e-16,1.1285254759218755e-16,6.282897755078557e-17,1.1285254759218755e-16,0.0
410.0,2026-01-01T12:06:50.000,6173840.165631478,-367784.6523353041,2995365.619510915,-3343.1236282203254,-834.4230517910072,6795.830401273755,6871956.281569748,7619.451966237589,1697283.542625639,5939426.798426641,3011016.6087003835,26.127385239916155,74.05188879228284,497939.92168943066,0.4560088973735055,1.2924492767460227,497.93992168943066,27638.620764718922,357.09100998932695,23803.850710268507,-9.559758294574728e-06,-3.215353682217832e-05,1.4331966772786296e-05,-3.3425386203080915e-05,2.354557500872656e-06,1.4416788732937407e-05,3.64779958498295e-05,36477.9958498295,0.6965884138472583,0.332685903556807,-0.6354856816673593,-0.015576253211970634,0.0018637629954920553,-0.003426807162416623,-0.00020866787767962144,-1.1634066285170737,-1.0653943539725854,1.6308207404111899,-66.65828967157273,-61.04259999969604,93.43914556796119,5.155704345162598e-06,2.2207712487180466e-05,2.8475961792574786e-05,3.647799584982951e-05,1.0,2.2954719457950846e-16,0.0,-4.0050291464861677e-17,5.6107725569423866e-18,-4.0050291464861677e-17,0.0,7.651625082204867e-18,5.6107725569423866e-18,7.651625082204867e-18,2.220446049250313e-16
420.0,2026-01-01T12:07:00.000,6140030.459898522,-376106.12529304967,3063138.578069817,-3418.7481180612604,-829.8545160036991,6758.622663153318,6871990.091263534,7619.414512636046,1702339.418225889,5903208.841900099,3078703.2478774283,26.75913604468303,73.91374710495198,498160.86045630695,0.4670350289688113,1.2900382494678388,498.160860456307,27385.62300341973,406.75443215776875,24471.56432890149,-9.861829719533796e-06,-3.2729922498969416e-05,1.343472161793653e-05,-3.405769688912847e-05,2.4994563315056173e-06,1.35211411045927e-05,3.6728670764338324e-05,36728.67076433833,0.6824516590831221,0.3395281118458009,-0.6470873026300403,-0.01607535555121707,0.0018696022861020532,-0.003423518699545734,-0.00021392294484830947,-1.2330275820221552,-1.059877392220648,1.7103192090315793,-70.64727647309043,-60.72650137557492,97.99407229766273,5.122624589286953e-06,2.268717629149151e-05,2.842615002688861e-05,3.672867076433833e-05,1.0000000000000002,1.661168629194353e-16,0.0,6.961370488642948e-17,-7.041062706427207e-17,6.961370488642948e-17,0.0,-6.319558340183538e-17,-7.041062706427207e-17,-6.319558340183538e-17,0.0
430.0,2026-01-01T12:07:10.000,6105466.606850476,-384381.40313231165,3130535.307580508,-3493.9515753588876,-825.1841225448295,6720.585360869339,6872024.65525615,7619.376223798388,1707133.7570528402,5866261.781589808,3146011.746296863,27.390744975116966,73.7745396855854,498385.6138147056,0.47805868438988336,1.2876086216566873,498.38561381470555,27126.818034541215,456.45739090940157,25129.149668510832,-1.0159718838643097e-05,-3.327846661824387e-05,1.2524797233863451e-05,-3.466218593556925e-05,2.6454374485343524e-06,1.2612743566503114e-05,3.6980356588335494e-05,36980.3565883355,0.6680548637592899,0.3462782285308834,-0.6584222082696881,-0.016561494809870233,0.001875581136517776,-0.003420137691661126,-0.00021918951485093075,-1.3006262969093954,-1.051673200502541,1.7878828996445075,-74.52039753663746,-60.25643581581121,102.438144413242,5.096545416124338e-06,2.3158882934299845e-05,2.8376718264401648e-05,3.69803565883355e-05,1.0000000000000002,2.299795109021879e-16,0.0,1.3483224818021755e-17,3.674783489437207e-17,1.3483224818021755e-17,0.0,1.6161179051381656e-17,3.674783489437207e-17,1.6161179051381656e-17,2.220446049250313e-16
440.0,2026-01-01T12:07:20.000,6070152.862806237,-392609.4701483947,3197547.5357920793,-3568.724752119575,-820.412449609394,6681.7232034421595,6872059.969000195,7619.337104452221,1711664.9161233755,5828590.5290809255,3212933.842573708,28.022208240942373,73.63422499016255,498614.08283225045,0.4890797974839329,1.2851596682326256,498.61408283225046,26862.435284215837,506.20056539085306,25776.460165053857,-1.0453222182670326e-05,-3.379897715351262e-05,1.1603096846435243e-05,-3.523862241185683e-05,2.792405617790391e-06,1.1692498714790386e-05,3.7232681407804366e-05,37232.68140780437,0.6534035355732964,0.3529340576850556,-0.6694858063486037,-0.017033077350780093,0.0018816994174120256,-0.0034166631805476757,-0.00022446780360568767,-1.3655788060919223,-1.040912273341436,1.8628980654161638,-78.24190218158098,-59.6398801058322,106.73619681143212,5.077814884092847e-06,2.362286689160072e-05,2.832752231734468e-05,3.723268140780437e-05,1.0000000000000007,1.0576376246539307e-15,4.440892098500626e-16,1.5456523393140018e-16,-1.3289243497963135e-16,1.5456523393140018e-16,2.220446049250313e-16,7.608723640096463e-18,-1.3289243497963135e-16,7.608723640096463e-18,8.881784197001252e-16
450.0,2026-01-01T12:07:30.000,6034093.5767329885,-400789.3164940517,3264167.0381587124,-3643.0584532417042,-815.540087953894,6642.0410021973885,6872096.028286268,7619.29715942796,1715931.2920606667,5790200.087400914,3279461.3232629173,28.65352199727556,73.4927600012297,498846.16747053084,0.5000983011450802,1.28269063839945,498.8461674705308,26592.704119039878,555.9833114095518,26413.35936837508,-1.0742141771202349e-05,-3.4291295162601704e-05,1.0670522441146588e-05,-3.578680864826419e-05,2.940264349772294e-06,1.0761308097284787e-05,3.7485284841370825e-05,37485.28484137083,0.6385032828524281,0.3594934052337002,-0.6802736228579929,-0.01748849404071523,0.001887956990733718,-0.0034130941847322002,-0.000229758022586825,-1.4274031782585552,-1.0277527258838417,1.9348931700392806,-81.78417777777513,-58.88589357620993,110.86121245193952,5.066776717147578e-06,2.407918055918386e-05,2.8278391342781483e-05,3.748528484137083e-05,1.0000000000000002,2.4485996437961243e-16,2.220446049250313e-16,4.1658531693973445e-17,-5.777376322838733e-17,4.1658531693973445e-17,0.0,-1.590775940754567e-17,-5.777376322838733e-17,-1.590775940754567e-17,0.0
460.0,2026-01-01T12:07:40.000,5997293.18913249,-408919.93828758533,3330385.6387200905,-3716.943538908035,-810.5676407439287,6601.543669524615,6872132.828673868,7619.256393657579,1719931.3212809523,5751095.549787863,3345586.02373696,29.28468234128951,73.35010014727462,499081.7660651872,0.5111141272561437,1.2802007542375198,499.08176606518725,26317.853577795,605.8035679337806,27039.720722063998,-1.1026285144647222e-05,-3.475529423213545e-05,9.727973600859526e-06,-3.6306579543698724e-05,3.088915956215315e-06,9.820070852831957e-06,3.7737818054335414e-05,37737.81805433542,0.6233598125999646,0.36595407923959405,-0.6907813040926473,-0.017926121702687894,0.0018943537092970932,-0.0034094296994693373,-0.0002350603786808698,-1.4857650548240104,-1.0123706770675267,2.0035444519571657,-85.12806698943918,-58.00456709877088,114.79464116399713,5.0637683988380125e-06,2.4527893122565614e-05,2.8229127157477825e-05,3.7737818054335414e-05,1.0000000000000002,5.945861960474569e-16,4.440892098500626e-16,2.2277372140036654e-16,6.124567992569448e-17,2.2277372140036654e-16,0.0,-1.1300069388307978e-17,6.124567992569448e-17,-1.1300069388307978e-17,2.220446049250313e-16
470.0,2026-01-01T12:07:50.000,5959756.231625054,-417000.3377407736,3396195.2111432715,-3790.370925414516,-805.4957234960316,6560.236218403722,6872170.365631375,7619.214812174156,1723663.4803496513,5711282.099134079,3411299.8292266293,29.915685307143395,73.20619921753033,499320.77551533334,0.5221272066001433,1.2776892092168008,499.32077551533337,26038.11211495721,655.6577652403001,27655.42732510143,-1.1305465380253673e-05,-3.51908798789303e-05,8.776346394300588e-06,-3.6797801844382186e-05,3.2382615457499834e-06,8.869682709044043e-06,3.798994379801337e-05,37989.94379801337,0.6079789285032524,0.3723138902015794,-0.7010046186826563,-0.01834432458792469,0.0019008894163595343,-0.0034056686967317857,-0.00024037507404012313,-1.5404690126949343,-0.9949511756757952,2.0686673151773975,-88.26237289810457,-57.006503187802394,118.52590637632414,5.0691195122113575e-06,2.496908946202558e-05,2.8179503696561025e-05,3.798994379801338e-05,1.0000000000000004,4.218333771731707e-16,2.220446049250313e-16,1.1668751868257047e-16,2.792047270763813e-17,1.1668751868257047e-16,2.220446049250313e-16,-2.4909021893245907e-17,2.792047270763813e-17,-2.4909021893245907e-17,2.220446049250313e-16
480.0,2026-01-01T12:08:00.000,5921487.326382757,-425029.5232819879,3461587.6797254053,-3863.3315862992276,-800.3249639991092,6518.123761765046,6872208.634536617,7619.172420111228,1727126.2862947383,5670765.007283703,3476594.6758223106,30.546526860847283,73.06100927163214,499563.0913342482,0.5331374687706728,1.275155166620085,499.5630913342482,25753.70736658277,705.5407364890598,28260.371690091066,-1.1579501099531385e-05,-3.55979889281754e-05,7.816532317593204e-06,-3.7260373844390495e-05,3.388201077945933e-06,7.91103490165666e-06,3.8241336780813024e-05,38241.33678081302,0.5923665289058537,0.3785706513729476,-0.7109394595763833,-0.018741455875484557,0.0019075639451890654,-0.0034018101252044027,-0.0002457023059335259,-1.5914403503261585,-0.9756804611026776,2.1301981442866973,-91.18281542051007,-55.90237257456151,122.05136319422773,5.083149902639972e-06,2.540286920582248e-05,2.8129267000096726e-05,3.824133678081303e-05,1.0,4.697277390061033e-16,2.220446049250313e-16,1.5399212703195056e-16,-1.9293929687176144e-16,1.5399212703195056e-16,0.0,8.894962303774722e-18,-1.9293929687176144e-16,8.894962303774722e-18,2.220446049250313e-16
490.0,2026-01-01T12:08:10.000,5882491.185551412,-433006.5096785173,3526555.020389982,-3935.8165534637315,-795.0560022343327,6475.211511836954,6872247.6306774495,7619.129222702144,1730318.2969173202,5629549.63431795,3541462.551468756,31.1772028947598,72.91448054373322,499808.60770071717,0.5441448420758657,1.27259775786949,499.8086077007172,25464.86593704321,755.4456338287937,28854.455498199473,-1.1848216468461173e-05,-3.597658887010698e-05,6.849417287814242e-06,-3.769422452825997e-05,3.538633368512796e-06,6.9450132074049645e-06,3.849168348298964e-05,38491.68348298964,0.5765286047426907,0.38472217909634676,-0.7205818459773538,-0.019115859192673897,0.0019143771186206234,-0.003397852910283055,-0.0002510422665947312,-1.6387020833581092,-0.954739944518695,2.1881713301059236,-93.89071325571487,-54.7025693534756,125.37298206659707,5.106167943600886e-06,2.5829345477589763e-05,2.8078134882604185e-05,3.849168348298965e-05,1.0000000000000004,6.471054116074924e-16,2.220446049250313e-16,2.1726209542010657e-16,7.482627690447244e-17,2.1726209542010657e-16,2.220446049250313e-16,9.305642006434078e-17,7.482627690447244e-17,9.305642006434078e-17,4.440892098500626e-16
500.0,2026-01-01T12:08:20.000,5842772.610661353,-440930.3181580846,3591089.2616765006,-4007.8169182866786,-789.689490293497,6431.504779480925,6872287.349252339,7619.085225279405,1733238.1110936308,5587641.4278296875,3605895.496953252,31.807709221693692,72.76656134072441,500057.2175109191,0.5551492534355179,1.2700160807500602,500.0572175109191,25171.81320660975,805.3638502199574,29437.589352938456,-1.2111441192662634e-05,-3.632667719918515e-05,5.875880687591149e-06,-3.809931300890217e-05,3.689456151375352e-06,5.972496889430166e-06,3.87406822027888e-05,38740.6822027888,0.5604712374392996,0.39076629315604006,-0.7299279252332941,-0.01946587015693701,0.0019213287486013323,-0.003393795954078432,-0.0002563951430673907,-1.6823510924261438,-0.9323019557419514,2.2426954487254886,-96.39161725524151,-53.41696729580628,128.4969839451688,5.1384686437806085e-06,2.624864372885122e-05,2.8025797043620368e-05,3.8740682202788806e-05,1.0000000000000002,5.673596245140241e-16,2.220446049250313e-16,1.4550621727941863e-16,1.1750939107638031e-16,1.4550621727941863e-16,0.0,5.20426658181251e-17,1.1750939107638031e-16,5.20426658181251e-17,4.440892098500626e-16
510.0,2026-01-01T12:08:30.000,5802336.492027133,-448799.9765295376,3655182.4857234242,-4079.323832729532,-784.2260922958538,6387.008973514217,6872327.785370975,7619.040433273991,1735884.369071838,5545045.922186517,3669885.60688704,32.43804156859987,72.61719793407839,500308.8124309024,0.5661506282708538,1.267409197522092,500.3088124309024,24874.773159716166,855.2849481364227,30009.69253483392,-1.236901050970335e-05,-3.664828073946075e-05,4.896794459401957e-06,-3.847562785275313e-05,3.840566072932341e-06,4.994357867171588e-06,3.898804299948242e-05,38988.04299948242,0.5442005967754581,0.3967008171477303,-0.7389739746767272,-0.019789817938479448,0.0019284186357246527,-0.0033896381354251593,-0.0002617611170475926,-1.7225360976112871,-0.9085270750079106,2.2939312685478908,-98.69404845206155,-52.054766971318855,131.4325801808852,5.180331956878936e-06,2.6660900524606103e-05,2.7971915218001923e-05,3.898804299948243e-05,1.0000000000000002,4.046825055428789e-16,2.220446049250313e-16,1.1736879895455848e-16,5.643111975128385e-17,1.1736879895455848e-16,0.0,1.2498100785918856e-16,5.643111975128385e-17,1.2498100785918856e-16,2.220446049250313e-16
